vehicle_label,stop_id,current_status,route_short_name,route_type,stop_code,stop_name,stop_desc,stop_lat,stop_lon,zone_id,upcoming_stops,delay_s,delay_min
1,320030,2,250,3,320030,"Redland Bay Marina, platform 1",,-27.618197,153.311,3,"{'stop_sequence': 1, 'stop_id': '320030', 'arrival_time': 1714376775, 'arrival_delay': -884}",-884,-14.7333 
1,310037,1,640,3,310037,Fortune Ave at Bribie Island Shopping Centre,,-27.064827,153.158,4,"{'stop_sequence': 20, 'stop_id': '310037', 'arrival_time': 1714377398, 'arrival_delay': -21}",-21,-0.3500 
10,317934,2,679,3,317934,Murrumba Downs Shopping Centre,,-27.272138,153.016,3,"{'stop_sequence': 1, 'stop_id': '317934', 'arrival_time': 1714377368, 'arrival_delay': -351}",-351,-5.8500 
10,311580,2,541,3,311580,Tovey Rd at Macquarie Street,,-27.688171,153.014,3,"{'stop_sequence': 9, 'stop_id': '311580', 'arrival_time': 1714377423, 'arrival_delay': 363}",363,6.0500 
100,300333,2,777,3,300333,Gold Coast Hwy at Annette Kellerman Park,,-28.048173,153.436,5,"{'stop_sequence': 10, 'stop_id': '300333', 'arrival_time': 1714377433, 'arrival_delay': 1633}",1633,27.2167 
100,311100,2,272,3,311100,Boundary Rd at Abeya Street,,-27.579804,153.277,3,"{'stop_sequence': 15, 'stop_id': '311100', 'arrival_time': 1714377437, 'arrival_delay': 78}",78,1.3000 
101,300008,1,777,3,300008,Gold Coast Airport,,-28.166853,153.513,6,"{'stop_sequence': 1, 'stop_id': '300008', 'arrival_time': 0, 'arrival_delay': 0}",0,0.0000 
101,312012,1,525,3,312012,Gibbs Ave at Hunt Court,,-27.61695,152.857,3,"{'stop_sequence': 7, 'stop_id': '312012', 'arrival_time': 1714377409, 'arrival_delay': -11}",-11,-0.1833 
102,316300,2,514,3,316300,Pine St at Wyndham Street,,-27.595767,152.764,3,"{'stop_sequence': 24, 'stop_id': '316300', 'arrival_time': 1714377478, 'arrival_delay': 118}",118,1.9667 
102,300413,2,777,3,300413,Palm Beach,,-28.120517,153.472,6,"{'stop_sequence': 2, 'stop_id': '300413', 'arrival_time': 1714377707, 'arrival_delay': 527}",527,8.7833 
104,311805,2,527,3,311805,Old Logan Rd near Hallett Ave,,-27.624828,152.915,3,"{'stop_sequence': 20, 'stop_id': '311805', 'arrival_time': 1714377442, 'arrival_delay': 83}",83,1.3833 
105,300008,2,777,3,300008,Gold Coast Airport,,-28.166853,153.513,6,"{'stop_sequence': 10, 'stop_id': '300008', 'arrival_time': 1714377698, 'arrival_delay': 338}",338,5.6333 
105,317543,2,509,3,317543,Deebing Creek Rd at Amberley State School,,-27.655312,152.751,3,"{'stop_sequence': 6, 'stop_id': '317543', 'arrival_time': 1714377445, 'arrival_delay': 26}",26,0.4333 
105,321173,2,667,3,321173,"Morayfield Shops bus station, platform 2",,-27.103252,152.949,3,"{'stop_sequence': 1, 'stop_id': '321173', 'arrival_time': 0, 'arrival_delay': 0}",0,0.0000 
107,310075,2,509,3,310075,"Ipswich Hospital, Stop C",,-27.618801,152.761,3,"{'stop_sequence': 4, 'stop_id': '310075', 'arrival_time': 1714377439, 'arrival_delay': 499}",499,8.3167 
107,300008,2,777,3,300008,Gold Coast Airport,,-28.166853,153.513,6,"{'stop_sequence': 1, 'stop_id': '300008', 'arrival_time': 0, 'arrival_delay': 0}",0,0.0000 
109,313263,2,502,3,313263,Blackstone Rd near Church St,,-27.621683,152.79,3,"{'stop_sequence': 11, 'stop_id': '313263', 'arrival_time': 1714377449, 'arrival_delay': 150}",150,2.5000 
11,318072,2,512,3,318072,"Ipswich station, stop A",,-27.613628,152.76,3,"{'stop_sequence': 16, 'stop_id': '318072', 'arrival_time': 1714377595, 'arrival_delay': -125}",-125,-2.0833 
110,311351,2,514,3,311351,Charlotte St at Blackall Street,,-27.599102,152.771,3,"{'stop_sequence': 38, 'stop_id': '311351', 'arrival_time': 1714377425, 'arrival_delay': -114}",-114,-1.9000 
111,311599,2,512,3,311599,Fernvale Rd at Bourke Street,,-27.589244,152.739,3,"{'stop_sequence': 16, 'stop_id': '311599', 'arrival_time': 1714377435, 'arrival_delay': -164}",-164,-2.7333 
112,318072,1,509,3,318072,"Ipswich station, stop A",,-27.613628,152.76,3,"{'stop_sequence': 32, 'stop_id': '318072', 'arrival_time': 1714377405, 'arrival_delay': 165}",165,2.7500 
113,311246,2,515,3,311246,Warwick Rd at Yamanto Shopping Centre,,-27.660575,152.739,3,"{'stop_sequence': 1, 'stop_id': '311246', 'arrival_time': 1714376901, 'arrival_delay': -1419}",-1419,-23.6500 
1139,600475,2,BRCA,2,600475,"Morayfield station, platform 2",,-27.110234,152.953,3,"{'stop_sequence': 1, 'stop_id': '600038', 'arrival_time': 1714374490, 'arrival_delay': 130}",130,2.1667 
12,600809,2,GLKN,0,600809,"Surfers Paradise station, platform 1",,-28.005939,153.429,5,"{'stop_sequence': 4, 'stop_id': '600807', 'arrival_time': 1714377415, 'arrival_delay': 85}",85,1.4167 
120,317671,1,688,3,317671,Bounty Bvd near Wombat Pde,,-27.210343,153.018,3,"{'stop_sequence': 13, 'stop_id': '317671', 'arrival_time': 1714377416, 'arrival_delay': 416}",416,6.9333 
121,10885,1,240,3,10885,Old Cleveland Rd near Caradoc St,,-27.51719,153.184,2,"{'stop_sequence': 30, 'stop_id': '10885', 'arrival_time': 1714377417, 'arrival_delay': -3}",-3,-0.0500 
124,310051,1,653,3,310051,"Caboolture station, stop C",,-27.082753,152.953,3,"{'stop_sequence': 1, 'stop_id': '310051', 'arrival_time': 0, 'arrival_delay': 0}",0,0.0000 
125,317615,1,641,3,317615,Bribie Island park 'n' ride,,-27.065605,153.159,4,"{'stop_sequence': 1, 'stop_id': '317615', 'arrival_time': 1714375038, 'arrival_delay': -2741}",-2741,-45.6833 
126,310086,2,654,3,310086,Morayfield station,,-27.110003,152.953,3,"{'stop_sequence': 1, 'stop_id': '310086', 'arrival_time': 1714377462, 'arrival_delay': 162}",162,2.7000 
127,310047,1,664,3,310047,Burpengary station,,-27.162302,152.957,3,"{'stop_sequence': 6, 'stop_id': '310047', 'arrival_time': 1714377372, 'arrival_delay': 72}",72,1.2000 
128,318013,2,667,3,318013,Lomandra Dr near Redcedar Pl,,-27.113808,152.969,3,"{'stop_sequence': 16, 'stop_id': '318013', 'arrival_time': 1714377435, 'arrival_delay': 76}",76,1.2667 
129,310969,1,691,3,310969,Scarborough Rd at Fifth Avenue,,-27.194383,153.112,3,"{'stop_sequence': 1, 'stop_id': '310969', 'arrival_time': 1714376452, 'arrival_delay': -1327}",-1327,-22.1167 
13,600836,2,GLKN,0,600836,"Helensvale station, platform 5",,-27.925545,153.339,5,"{'stop_sequence': 21, 'stop_id': '600836', 'arrival_time': 1714377500, 'arrival_delay': 110}",110,1.8333 
13,310572,1,506,3,310572,Limestone St at Waghorn Street,,-27.615822,152.754,3,"{'stop_sequence': 5, 'stop_id': '310572', 'arrival_time': 1714377394, 'arrival_delay': 215}",215,3.5833 
134,310054,2,651,3,310054,Caboolture Square Shopping Centre,,-27.084899,152.95,3,"{'stop_sequence': 5, 'stop_id': '310054', 'arrival_time': 1714377451, 'arrival_delay': 91}",91,1.5167 
134,3202,1,690,3,3202,"Sandgate Central, stop 33",,-27.320576,153.069,2,"{'stop_sequence': 2, 'stop_id': '3202', 'arrival_time': 1714377425, 'arrival_delay': 126}",126,2.1000 
135,312063,2,662,3,312063,Moreton Downs Dr near Felicity Ct,,-27.199859,153.026,3,"{'stop_sequence': 8, 'stop_id': '312063', 'arrival_time': 1714377444, 'arrival_delay': 84}",84,1.4000 
135,310790,2,643,3,310790,Bribie Island Rd at Lee Road,,-27.074958,153.053,3,"{'stop_sequence': 6, 'stop_id': '310790', 'arrival_time': 1714377487, 'arrival_delay': 127}",127,2.1167 
135,30108,2,690,3,30108,"Sandgate bus station, stop 2",,-27.322061,153.069,2,"{'stop_sequence': 1, 'stop_id': '30108', 'arrival_time': 1714376303, 'arrival_delay': -1897}",-1897,-31.6167 
136,310281,2,660,3,310281,Eastern Service Rd at Creek Road,,-27.16793,152.981,3,"{'stop_sequence': 11, 'stop_id': '310281', 'arrival_time': 1714377601, 'arrival_delay': -59}",-59,-0.9833 
138,30109,2,691,3,30109,"Sandgate bus station, stop 3",,-27.322054,153.069,2,"{'stop_sequence': 1, 'stop_id': '30109', 'arrival_time': 1714377317, 'arrival_delay': 18}",18,0.3000 
139,310051,2,654,3,310051,"Caboolture station, stop C",,-27.082753,152.953,3,"{'stop_sequence': 31, 'stop_id': '310051', 'arrival_time': 1714377424, 'arrival_delay': -56}",-56,-0.9333 
14,310565,2,503,3,310565,East St at South Street,,-27.616795,152.76,3,"{'stop_sequence': 3, 'stop_id': '310565', 'arrival_time': 1714377557, 'arrival_delay': 317}",317,5.2833 
14,600834,2,GLKS,0,600834,"Parkwood station, platform 2",,-27.951802,153.347,5,"{'stop_sequence': 4, 'stop_id': '600832', 'arrival_time': 1714377512, 'arrival_delay': 14}",14,0.2333 
14,318056,2,674,3,318056,Shakespeare Pde near Bells Pocket Rd,,-27.289802,152.995,2,"{'stop_sequence': 17, 'stop_id': '318056', 'arrival_time': 1714377551, 'arrival_delay': 72}",72,1.2000 
140,310086,1,656,3,310086,Morayfield station,,-27.110003,152.953,3,"{'stop_sequence': 1, 'stop_id': '310086', 'arrival_time': 1714377365, 'arrival_delay': -1195}",-1195,-19.9167 
141,311715,2,651,3,311715,George St near Toohey St,,-27.079246,152.949,3,"{'stop_sequence': 26, 'stop_id': '311715', 'arrival_time': 1714377451, 'arrival_delay': 152}",152,2.5333 
142,310078,2,698,3,310078,Nathan Road,,-27.218438,153.072,3,"{'stop_sequence': 8, 'stop_id': '310078', 'arrival_time': 1714377440, 'arrival_delay': 20}",20,0.3333 
143,310050,1,660,3,310050,"Caboolture station, stop B",,-27.08293,152.954,3,"{'stop_sequence': 1, 'stop_id': '310050', 'arrival_time': 1714377068, 'arrival_delay': -291}",-291,-4.8500 
143,310409,1,694,3,310409,Maine Rd at Beedham Street,,-27.246187,153.091,3,"{'stop_sequence': 27, 'stop_id': '310409', 'arrival_time': 1714377414, 'arrival_delay': -66}",-66,-1.1000 
144,310078,2,660,3,310078,Nathan Road,,-27.218438,153.072,3,"{'stop_sequence': 25, 'stop_id': '310078', 'arrival_time': 1714377488, 'arrival_delay': 8}",8,0.1333 
145,319572,2,699,3,319572,Thurecht Pde at Thurecht Park,,-27.19602,153.109,3,"{'stop_sequence': 13, 'stop_id': '319572', 'arrival_time': 1714377432, 'arrival_delay': 312}",312,5.2000 
146,313159,2,680,3,313159,Anzac Ave at Finnegan Street,,-27.217624,153.045,3,"{'stop_sequence': 44, 'stop_id': '313159', 'arrival_time': 1714377472, 'arrival_delay': 832}",832,13.8667 
148,310827,2,680,3,310827,Anzac Ave at Whites Road,,-27.268879,152.98,3,"{'stop_sequence': 26, 'stop_id': '310827', 'arrival_time': 1714377463, 'arrival_delay': -16}",-16,-0.2667 
149,310857,2,690,3,310857,Anzac Ave at Museum and Historical Society,,-27.230398,153.11,3,"{'stop_sequence': 36, 'stop_id': '310857', 'arrival_time': 1714377421, 'arrival_delay': 242}",242,4.0333 
15,600816,1,GLKS,0,600816,"Main Beach station, platform 2",,-27.982184,153.424,5,"{'stop_sequence': 15, 'stop_id': '600814', 'arrival_time': 1714377577, 'arrival_delay': 58}",58,0.9667 
15,317738,2,524,3,317738,School Rd at Alawoona Street,,-27.654897,152.851,3,"{'stop_sequence': 14, 'stop_id': '317738', 'arrival_time': 1714377450, 'arrival_delay': 90}",90,1.5000 
15,310698,2,679,3,310698,Anzac Ave at Halpine Drive,,-27.242483,153.024,3,"{'stop_sequence': 3, 'stop_id': '310698', 'arrival_time': 1714377559, 'arrival_delay': 259}",259,4.3167 
150,312739,2,699,3,312739,Newport Dr at Southern Cross Drive,,-27.204713,153.098,3,"{'stop_sequence': 8, 'stop_id': '312739', 'arrival_time': 1714377433, 'arrival_delay': 14}",14,0.2333 
151,311224,1,694,3,311224,Hornibrook Esp at Bramble Bay Bowls Club,,-27.256316,153.097,3,"{'stop_sequence': 23, 'stop_id': '311224', 'arrival_time': 1714377395, 'arrival_delay': -85}",-85,-1.4167 
153,310603,1,680,3,310603,Anzac Ave at Sylvan Park,,-27.250793,152.992,3,"{'stop_sequence': 32, 'stop_id': '310603', 'arrival_time': 1714377407, 'arrival_delay': 228}",228,3.8000 
154,310883,1,680,3,310883,Redcliffe Jetty,,-27.225353,153.115,3,"{'stop_sequence': 60, 'stop_id': '310883', 'arrival_time': 1714377386, 'arrival_delay': 626}",626,10.4333 
155,312973,1,690,3,312973,Klingner Rd at OConnell Street,,-27.22152,153.103,3,"{'stop_sequence': 57, 'stop_id': '312973', 'arrival_time': 1714377412, 'arrival_delay': -68}",-68,-1.1333 
157,310865,1,696,3,310865,Klingner Rd at Redcliffe State High School,,-27.222871,153.112,3,"{'stop_sequence': 28, 'stop_id': '310865', 'arrival_time': 1714377401, 'arrival_delay': -18}",-18,-0.3000 
158,310347,1,270,3,310347,Redland Bay Rd at Windemere Rd,,-27.536073,153.209,2,"{'stop_sequence': 30, 'stop_id': '310347', 'arrival_time': 1714377401, 'arrival_delay': 41}",41,0.6833 
158,3996,1,680,3,3996,Chermside Shopping Centre interchange F,,-27.385881,153.032,2,"{'stop_sequence': 1, 'stop_id': '3996', 'arrival_time': 1714377177, 'arrival_delay': -603}",-603,-10.0500 
159,6120,2,680,3,6120,Ridley Rd at Gardenia Place,,-27.338946,153.007,2,"{'stop_sequence': 12, 'stop_id': '6120', 'arrival_time': 1714377437, 'arrival_delay': 137}",137,2.2833 
15Y6,600281,2,BRIP,2,600281,"Milton station, platform 3",,-27.468814,153.005,1,"{'stop_sequence': 5, 'stop_id': '600281', 'arrival_time': 1714377447, 'arrival_delay': 27}",27,0.4500 
16,310430,2,500,3,310430,Old Ipswich Rd at West Falen Community Garden,,-27.607401,152.86,3,"{'stop_sequence': 9, 'stop_id': '310430', 'arrival_time': 1714377552, 'arrival_delay': 252}",252,4.2000 
16,600808,2,GLKS,0,600808,"Surfers Paradise station, platform 2",,-28.006386,153.429,5,"{'stop_sequence': 19, 'stop_id': '600854', 'arrival_time': 1714377445, 'arrival_delay': 60}",60,1.0000 
160,319796,1,694,3,319796,"Kippa-Ring stations, stop B",,-27.225051,153.082,3,"{'stop_sequence': 1, 'stop_id': '319796', 'arrival_time': 0, 'arrival_delay': 0}",0,0.0000 
1636,600019,1,CARW,2,600019,"Central station, platform 5",,-27.465647,153.026,1,"{'stop_sequence': 10, 'stop_id': '600019', 'arrival_time': 1714377417, 'arrival_delay': 57}",57,0.9500 
165,310404,2,690,3,310404,Hornibrook Esp at Pelican Park Central,,-27.25714,153.087,3,"{'stop_sequence': 17, 'stop_id': '310404', 'arrival_time': 1714377425, 'arrival_delay': 125}",125,2.0833 
166,310722,2,696,3,310722,Victoria Ave at King Street,,-27.249147,153.098,3,"{'stop_sequence': 25, 'stop_id': '310722', 'arrival_time': 1714377444, 'arrival_delay': -36}",-36,-0.6000 
167,319647,2,698,3,319647,Rothwell station,,-27.223072,153.048,3,"{'stop_sequence': 1, 'stop_id': '319647', 'arrival_time': 0, 'arrival_delay': 0}",0,0.0000 
168,319796,2,694,3,319796,"Kippa-Ring stations, stop B",,-27.225051,153.082,3,"{'stop_sequence': 1, 'stop_id': '319796', 'arrival_time': 1714374651, 'arrival_delay': -4808}",-4808,-80.1333 
169,319805,2,680,3,319805,"North Lakes station, platform 2",,-27.237904,153.017,3,"{'stop_sequence': 23, 'stop_id': '319805', 'arrival_time': 1714377542, 'arrival_delay': 242}",242,4.0333 
17,600803,2,GLKN,0,600803,"Broadbeach North station, platform 1",,-28.028591,153.43,5,"{'stop_sequence': 2, 'stop_id': '600803', 'arrival_time': 1714377539, 'arrival_delay': 19}",19,0.3167 
17,319144,2,528,3,319144,Springfield Central station,,-27.674188,152.902,3,"{'stop_sequence': 28, 'stop_id': '319144', 'arrival_time': 1714377593, 'arrival_delay': -6}",-6,-0.1000 
171,312385,2,685,3,312385,School Rd near Ann St,,-27.246463,152.993,3,"{'stop_sequence': 6, 'stop_id': '312385', 'arrival_time': 1714377444, 'arrival_delay': 84}",84,1.4000 
173,319810,1,686,3,319810,"Petrie station, stop B",,-27.268263,152.982,3,"{'stop_sequence': 1, 'stop_id': '319810', 'arrival_time': 1714377062, 'arrival_delay': -358}",-358,-5.9667 
175,317668,1,687,3,317668,Bounty Bvd near Aurora Bvd,,-27.217656,153.006,3,"{'stop_sequence': 11, 'stop_id': '317668', 'arrival_time': 1714377401, 'arrival_delay': 281}",281,4.6833 
175,311144,2,274,3,311144,Colburn Av at Edinburgh St,,-27.584231,153.31,3,"{'stop_sequence': 3, 'stop_id': '311144', 'arrival_time': 1714377420, 'arrival_delay': 60}",60,1.0000 
1758,600240,2,FGBN,2,600240,"Beenleigh station, platform 2",,-27.717539,153.204,3,"{'stop_sequence': 1, 'stop_id': '600390', 'arrival_time': 1714371462, 'arrival_delay': 42}",42,0.7000 
1762,600213,1,FGBN,2,600213,"Altandi station, platform 2",,-27.582634,153.064,2,"{'stop_sequence': 1, 'stop_id': '600390', 'arrival_time': 1714373259, 'arrival_delay': 39}",39,0.6500 
1764,600197,1,FGBN,2,600197,"Moorooka station, platform 1",,-27.535845,153.014,2,"{'stop_sequence': 1, 'stop_id': '600390', 'arrival_time': 1714374379, 'arrival_delay': 259}",259,4.3167 
1768,600369,1,FGBN,2,600369,"Windsor station, platform 1",,-27.435285,153.029,1,"{'stop_sequence': 1, 'stop_id': '600390', 'arrival_time': 1714375966, 'arrival_delay': 46}",46,0.7667 
1770,600381,1,FGBN,2,600381,"Mitchelton station, platform 1",,-27.411575,152.976,2,"{'stop_sequence': 5, 'stop_id': '600381', 'arrival_time': 1714377395, 'arrival_delay': -25}",-25,-0.4167 
178,312567,1,682,3,312567,Chermside Rd at Kinsellas Road,,-27.218223,153.029,3,"{'stop_sequence': 11, 'stop_id': '312567', 'arrival_time': 1714377414, 'arrival_delay': 174}",174,2.9000 
179,319763,2,683,3,319763,Sheaves Rd at Purnell Street,,-27.239165,152.987,3,"{'stop_sequence': 12, 'stop_id': '319763', 'arrival_time': 1714377515, 'arrival_delay': -25}",-25,-0.4167 
17Z0,600226,1,FGBN,2,600226,"Woodridge station, platform 1",,-27.638053,153.104,2,"{'stop_sequence': 1, 'stop_id': '600390', 'arrival_time': 1714372366, 'arrival_delay': 46}",46,0.7667 
180,310036,2,255,3,310036,Birkdale station,,-27.493664,153.218,2,"{'stop_sequence': 1, 'stop_id': '310036', 'arrival_time': 1714377064, 'arrival_delay': -1016}",-1016,-16.9333 
181,7,1,267,3,7,Ann Street Stop 7 at Anzac Square,,-27.466105,153.026,1,"{'stop_sequence': 2, 'stop_id': '7', 'arrival_time': 1714377439, 'arrival_delay': 380}",380,6.3333 
181,319806,1,685,3,319806,"North Lakes station, platform 1",,-27.237832,153.018,3,"{'stop_sequence': 1, 'stop_id': '319806', 'arrival_time': 1714376538, 'arrival_delay': -1301}",-1301,-21.6833 
182,319808,2,684,3,319808,"Kallangur station, stop B",,-27.256888,153.001,3,"{'stop_sequence': 1, 'stop_id': '319808', 'arrival_time': 1714376943, 'arrival_delay': -296}",-296,-4.9333 
182,10819,1,280,3,10819,"Griffith University station, platform 2",,-27.546738,153.065,2,"{'stop_sequence': 1, 'stop_id': '10819', 'arrival_time': 0, 'arrival_delay': 0}",0,0.0000 
1866,600256,2,SHCL,2,600256,"Cannon Hill station, platform 1",,-27.46538,153.088,1,"{'stop_sequence': 1, 'stop_id': '600425', 'arrival_time': 1714373662, 'arrival_delay': 22}",22,0.3667 
1874,600421,1,SHCL,2,600421,"Deagon station, platform 1",,-27.327813,153.063,2,"{'stop_sequence': 3, 'stop_id': '600421', 'arrival_time': 1714377402, 'arrival_delay': -78}",-78,-1.3000 
18X6,600269,2,BRCL,2,600269,"Lota station, platform 1",,-27.470014,153.189,2,"{'stop_sequence': 1, 'stop_id': '600005', 'arrival_time': 1714374414, 'arrival_delay': 234}",234,3.9000 
190,10884,2,275,3,10884,"The Sleeman Centre, stop D",,-27.509079,153.147,2,"{'stop_sequence': 5, 'stop_id': '10884', 'arrival_time': 1714378468, 'arrival_delay': 569}",569,9.4833 
1A79,600418,2,CLSH,2,600418,"Boondall station, platform 2",,-27.34639,153.068,2,"{'stop_sequence': 1, 'stop_id': '600277', 'arrival_time': 1714371844, 'arrival_delay': 4}",4,0.0667 
1A83,600020,1,CLSH,2,600020,"Central station, platform 4",,-27.465687,153.026,1,"{'stop_sequence': 1, 'stop_id': '600277', 'arrival_time': 1714373654, 'arrival_delay': 14}",14,0.2333 
1EB1,600388,1,BNFG,2,600388,"Keperra station, platform 2",,-27.409291,152.957,2,"{'stop_sequence': 1, 'stop_id': '600240', 'arrival_time': 1714371744, 'arrival_delay': 264}",264,4.4000 
1EB3,600382,2,BRFG,2,600382,"Mitchelton station, platform 2",,-27.411677,152.976,2,"{'stop_sequence': 1, 'stop_id': '600030', 'arrival_time': 1714375954, 'arrival_delay': 214}",214,3.5667 
1EB5,600375,1,BNFG,2,600375,"Alderley station, platform 2",,-27.423306,153.001,1,"{'stop_sequence': 1, 'stop_id': '600205', 'arrival_time': 1714374649, 'arrival_delay': 49}",49,0.8167 
1EB9,600013,2,BNFG,2,600013,"Fortitude Valley station, platform 2",,-27.456111,153.034,1,"{'stop_sequence': 1, 'stop_id': '600240', 'arrival_time': 1714373536, 'arrival_delay': 256}",256,4.2667 
1EC1,600189,2,BNFG,2,600189,"South Bank station, platform 3",,-27.48189,153.023,1,"{'stop_sequence': 7, 'stop_id': '600189', 'arrival_time': 1714377548, 'arrival_delay': -52}",-52,-0.8667 
1EC3,600202,1,BNFG,2,600202,"Salisbury station, platform 2",,-27.553948,153.022,2,"{'stop_sequence': 16, 'stop_id': '600202', 'arrival_time': 1714377413, 'arrival_delay': -67}",-67,-1.1167 
1EC7,600231,2,BNFG,2,600231,"Loganlea station, platform 2",,-27.670838,153.138,3,"{'stop_sequence': 5, 'stop_id': '600231', 'arrival_time': 1714377504, 'arrival_delay': -36}",-36,-0.6000 
1Y67,600450,1,BRRP,2,600450,"Carseldine station, platform 2",,-27.34731,153.029,2,"{'stop_sequence': 11, 'stop_id': '600450', 'arrival_time': 1714377404, 'arrival_delay': 164}",164,2.7333 
2,600828,1,GLKS,0,600828,"Griffith University station, platform 2",,-27.963455,153.385,5,"{'stop_sequence': 8, 'stop_id': '600850', 'arrival_time': 1714377499, 'arrival_delay': -10}",-10,-0.1667 
20,321140,2,P546,3,321140,Greenbank RSL park 'n' ride,,-27.669564,153.03,3,"{'stop_sequence': 6, 'stop_id': '321140', 'arrival_time': 1714378604, 'arrival_delay': 524}",524,8.7333 
21,310823,2,540,3,310823,Mount Lindesay Hwy at Greenbank Gardens,,-27.692174,153.034,3,"{'stop_sequence': 17, 'stop_id': '310823', 'arrival_time': 1714377479, 'arrival_delay': 179}",179,2.9833 
21,310335,1,262,3,310335,Ney Rd at Jeffrey Street,,-27.537093,153.201,2,"{'stop_sequence': 22, 'stop_id': '310335', 'arrival_time': 1714377406, 'arrival_delay': 46}",46,0.7667 
213,321248,2,TX7,3,321248,"Coomera station, stop B",,-27.852278,153.317,4,"{'stop_sequence': 1, 'stop_id': '321248', 'arrival_time': 0, 'arrival_delay': 0}",0,0.0000 
214,300035,2,TX7,3,300035,Movie World,,-27.906451,153.313,4,"{'stop_sequence': 4, 'stop_id': '300035', 'arrival_time': 1714377476, 'arrival_delay': 177}",177,2.9500 
23,321140,2,P546,3,321140,Greenbank RSL park 'n' ride,,-27.669564,153.03,3,"{'stop_sequence': 6, 'stop_id': '321140', 'arrival_time': 1714378622, 'arrival_delay': -57}",-57,-0.9500 
230,6303,1,270,3,6303,"Carindale Shopping Centre station, platform J",,-27.503895,153.103,2,"{'stop_sequence': 1, 'stop_id': '6303', 'arrival_time': 0, 'arrival_delay': 0}",0,0.0000 
232,300064,2,740,3,300064,Ashmore Rd at Boree Street,,-27.999318,153.382,5,"{'stop_sequence': 7, 'stop_id': '300064', 'arrival_time': 1714377564, 'arrival_delay': 264}",264,4.4000 
233,300226,2,700,3,300226,Musgrave St at Coyne Street,,-28.166761,153.525,6,"{'stop_sequence': 42, 'stop_id': '300226', 'arrival_time': 1714377432, 'arrival_delay': 1093}",1093,18.2167 
234,321504,2,750,3,321504,Christine Ave at The Crestway,,-28.082558,153.387,5,"{'stop_sequence': 21, 'stop_id': '321504', 'arrival_time': 1714377439, 'arrival_delay': -41}",-41,-0.6833 
235,319229,1,713,3,319229,Oxley Dr at Marsupial Drive,,-27.904697,153.388,4,"{'stop_sequence': 15, 'stop_id': '319229', 'arrival_time': 1714377411, 'arrival_delay': 51}",51,0.8500 
237,11035,2,265,3,11035,Old Cleveland Rd near Bacton Rd,,-27.508709,153.157,2,"{'stop_sequence': 6, 'stop_id': '11035', 'arrival_time': 1714377434, 'arrival_delay': 554}",554,9.2333 
238,313450,2,272,3,313450,South St at Osprey Drive,,-27.547797,153.256,3,"{'stop_sequence': 27, 'stop_id': '313450', 'arrival_time': 1714377428, 'arrival_delay': -52}",-52,-0.8667 
239,11035,2,250,3,11035,Old Cleveland Rd near Bacton Rd,,-27.508709,153.157,2,"{'stop_sequence': 7, 'stop_id': '11035', 'arrival_time': 1714377480, 'arrival_delay': 121}",121,2.0167 
24,312857,2,P546,3,312857,Park Ridge park 'n' ride stop A,,-27.697802,153.037,3,"{'stop_sequence': 7, 'stop_id': '312857', 'arrival_time': 1714377528, 'arrival_delay': 109}",109,1.8167 
240,300805,2,766,3,300805,Ware Dr near Aethalia St,,-28.141856,153.459,6,"{'stop_sequence': 8, 'stop_id': '300805', 'arrival_time': 1714377441, 'arrival_delay': 21}",21,0.3500 
242,320932,1,760,3,320932,"The Pines Shopping Centre, stop B",,-28.134333,153.47,6,"{'stop_sequence': 25, 'stop_id': '320932', 'arrival_time': 1714377401, 'arrival_delay': 522}",522,8.7000 
244,300189,2,765,3,300189,Christine Ave at Bermuda Street,,-28.08619,153.425,6,"{'stop_sequence': 27, 'stop_id': '300189', 'arrival_time': 1714377429, 'arrival_delay': 249}",249,4.1500 
246,320922,2,755,3,320922,"Robina station, stop A",,-28.071098,153.377,5,"{'stop_sequence': 2, 'stop_id': '320922', 'arrival_time': 1714377525, 'arrival_delay': 345}",345,5.7500 
247,300179,2,700,3,300179,Gold Coast Hwy at Anzac Parade,,-28.078884,153.447,6,"{'stop_sequence': 13, 'stop_id': '300179', 'arrival_time': 1714377441, 'arrival_delay': 262}",262,4.3667 
248,311156,1,270,3,311156,Victoria Point Jetty,,-27.5814,153.318,3,"{'stop_sequence': 1, 'stop_id': '311156', 'arrival_time': 1714377349, 'arrival_delay': -251}",-251,-4.1833 
252,320928,2,713,3,320928,"Southport bus station, stop B",,-27.966766,153.414,5,"{'stop_sequence': 1, 'stop_id': '320928', 'arrival_time': 1714376223, 'arrival_delay': -1676}",-1676,-27.9333 
254,300002,2,760,3,300002,Wharf St at Tweed Heads,,-28.170571,153.543,7,"{'stop_sequence': 1, 'stop_id': '300002', 'arrival_time': 1714377335, 'arrival_delay': -1464}",-1464,-24.4000 
255,320931,1,765,3,320931,"The Pines Shopping Centre, stop A",,-28.134376,153.47,6,"{'stop_sequence': 1, 'stop_id': '320931', 'arrival_time': 1714377341, 'arrival_delay': -258}",-258,-4.3000 
256,300110,2,704,3,300110,Brisbane Rd at Treasure Island Caravan Park,,-27.934815,153.392,5,"{'stop_sequence': 10, 'stop_id': '300110', 'arrival_time': 1714377437, 'arrival_delay': 138}",138,2.3000 
257,300117,2,719,3,300117,Pine Ridge Rd at Coombabah High School,,-27.924377,153.379,5,"{'stop_sequence': 19, 'stop_id': '300117', 'arrival_time': 1714377458, 'arrival_delay': 219}",219,3.6500 
258,300432,2,700,3,300432,Gold Coast Hwy at Thrower Drive,,-28.128666,153.478,6,"{'stop_sequence': 28, 'stop_id': '300432', 'arrival_time': 1714377423, 'arrival_delay': 543}",543,9.0500 
259,300453,2,747,3,300453,Robina Town Centre Dr at Leabrook Crescent,,-28.070434,153.388,5,"{'stop_sequence': 24, 'stop_id': '300453', 'arrival_time': 1714377419, 'arrival_delay': 179}",179,2.9833 
260,300042,1,750,3,300042,Robina Town Centre,,-28.078238,153.383,5,"{'stop_sequence': 2, 'stop_id': '300042', 'arrival_time': 1714377440, 'arrival_delay': 21}",21,0.3500 
261,301336,1,713,3,301336,Brooke Ave at Mole Avenue,,-27.961739,153.401,5,"{'stop_sequence': 8, 'stop_id': '301336', 'arrival_time': 1714377412, 'arrival_delay': 113}",113,1.8833 
262,319208,2,714,3,319208,Napper Rd at Arundel Plaza,,-27.946678,153.351,5,"{'stop_sequence': 7, 'stop_id': '319204', 'arrival_time': 1714376707, 'arrival_delay': 67}",67,1.1167 
263,300217,1,700,3,300217,Coolangatta Central,,-28.16838,153.537,6,"{'stop_sequence': 4, 'stop_id': '300217', 'arrival_time': 1714377425, 'arrival_delay': 306}",306,5.1000 
264,300005,2,713,3,300005,"Harbour Town, stop B",,-27.933635,153.388,5,"{'stop_sequence': 26, 'stop_id': '300005', 'arrival_time': 1714377459, 'arrival_delay': 40}",40,0.6667 
265,300051,1,765,3,300051,Varsity Lakes station,,-28.096817,153.4,6,"{'stop_sequence': 6, 'stop_id': '300051', 'arrival_time': 1714377407, 'arrival_delay': 708}",708,11.8000 
265,6595,2,279,3,6595,Mackenzie State Primary School,,-27.546629,153.124,2,"{'stop_sequence': 13, 'stop_id': '6595', 'arrival_time': 1714377456, 'arrival_delay': 936}",936,15.6000 
266,313575,2,252,3,313575,Sturgeon St near Starkey St,,-27.510371,153.244,2,"{'stop_sequence': 22, 'stop_id': '313575', 'arrival_time': 1714377439, 'arrival_delay': 139}",139,2.3167 
266,300434,2,765,3,300434,Gold Coast Hwy at Tallebudgera Tourist Park,,-28.099317,153.458,6,"{'stop_sequence': 15, 'stop_id': '300434', 'arrival_time': 1714377442, 'arrival_delay': 82}",82,1.3667 
267,300007,2,700,3,300007,Cahill Street,,-28.163058,153.515,6,"{'stop_sequence': 39, 'stop_id': '300007', 'arrival_time': 1714377427, 'arrival_delay': 608}",608,10.1333 
267,11370,1,253,3,11370,Thorneside station,,-27.486357,153.193,2,"{'stop_sequence': 1, 'stop_id': '11370', 'arrival_time': 1714376523, 'arrival_delay': -1256}",-1256,-20.9333 
268,310369,1,250,3,310369,Bloomfield St at Princess Street,,-27.533454,153.267,3,"{'stop_sequence': 27, 'stop_id': '310369', 'arrival_time': 1714377412, 'arrival_delay': 232}",232,3.8667 
269,319692,1,705,3,319692,Old Burleigh Rd at First Avenue,,-28.017369,153.432,5,"{'stop_sequence': 14, 'stop_id': '319692', 'arrival_time': 1714377413, 'arrival_delay': 113}",113,1.8833 
28,319492,1,528,3,319492,Springfield Station,,-27.659125,152.922,3,"{'stop_sequence': 1, 'stop_id': '319492', 'arrival_time': 1714376455, 'arrival_delay': -1085}",-1085,-18.0833 
29,321360,1,670,3,321360,Old North Rd at Warner Shops,,-27.292447,152.954,2,"{'stop_sequence': 1, 'stop_id': '321360', 'arrival_time': 1714376741, 'arrival_delay': -1278}",-1278,-21.3000 
29,310492,2,660,3,310492,Deception Bay Rd at Bailey Road,,-27.192678,153.023,3,"{'stop_sequence': 23, 'stop_id': '310492', 'arrival_time': 1714377459, 'arrival_delay': 40}",40,0.6667 
29,311202,2,506,3,311202,Brisbane St at Tiger Street,,-27.618185,152.75,3,"{'stop_sequence': 18, 'stop_id': '311202', 'arrival_time': 1714377424, 'arrival_delay': 65}",65,1.0833 
3,600829,1,GLKN,0,600829,"Griffith University station, platform (Southport)",,-27.963226,153.385,5,"{'stop_sequence': 15, 'stop_id': '600827', 'arrival_time': 1714377405, 'arrival_delay': 85}",85,1.4167 
3,312532,1,547,3,312532,Wembley Rd at Lennox Ct,,-27.641916,153.104,2,"{'stop_sequence': 8, 'stop_id': '312532', 'arrival_time': 1714377410, 'arrival_delay': 51}",51,0.8500 
3,312694,2,679,3,312694,Ogg Rd at Undurba Primary School,,-27.261561,153.01,3,"{'stop_sequence': 16, 'stop_id': '312694', 'arrival_time': 1714377503, 'arrival_delay': 203}",203,3.3833 
301,320928,2,715,3,320928,"Southport bus station, stop B",,-27.966766,153.414,5,"{'stop_sequence': 1, 'stop_id': '320928', 'arrival_time': 1714377113, 'arrival_delay': -486}",-486,-8.1000 
302,320927,2,715,3,320927,"Southport bus station, stop A",,-27.96718,153.414,5,"{'stop_sequence': 36, 'stop_id': '320927', 'arrival_time': 1714377443, 'arrival_delay': -36}",-36,-0.6000 
304,319719,2,750,3,319719,Bond University,,-28.07253,153.415,5,"{'stop_sequence': 10, 'stop_id': '319719', 'arrival_time': 1714377464, 'arrival_delay': 224}",224,3.7333 
31,317994,1,660,3,317994,Humpybong Esplanade,,-27.225366,153.114,3,"{'stop_sequence': 1, 'stop_id': '317994', 'arrival_time': 1714376817, 'arrival_delay': -2043}",-2043,-34.0500 
31,318233,2,262,3,318233,Mt Petrie Rd at Vivaldi Place,,-27.543376,153.121,2,"{'stop_sequence': 20, 'stop_id': '318233', 'arrival_time': 1714377448, 'arrival_delay': 149}",149,2.4833 
31,310953,2,643,3,310953,Bestmann Rd East near Bribie Island Rd,,-27.075085,153.138,4,"{'stop_sequence': 4, 'stop_id': '310953', 'arrival_time': 1714377443, 'arrival_delay': 83}",83,1.3833 
315,321249,1,724,3,321249,Pimpama Sports Hub,,-27.825125,153.292,4,"{'stop_sequence': 1, 'stop_id': '321249', 'arrival_time': 1714376924, 'arrival_delay': -975}",-975,-16.2500 
316,319190,2,722,3,319190,Finnegan Way at Lily Avenue,,-27.842798,153.328,4,"{'stop_sequence': 3, 'stop_id': '319190', 'arrival_time': 1714377445, 'arrival_delay': 145}",145,2.4167 
318,321515,2,725,3,321515,Coomera station,,-27.851887,153.316,4,"{'stop_sequence': 35, 'stop_id': '321515', 'arrival_time': 1714377591, 'arrival_delay': 411}",411,6.8500 
32,310220,1,642,3,310220,Toorbul St at Bribie Island RSL,,-27.090244,153.164,4,"{'stop_sequence': 1, 'stop_id': '310220', 'arrival_time': 1714377117, 'arrival_delay': -1503}",-1503,-25.0500 
327,300808,2,763,3,300808,Casuarina Dr at Ottelia Drive,,-28.135478,153.442,6,"{'stop_sequence': 10, 'stop_id': '300808', 'arrival_time': 1714377437, 'arrival_delay': 138}",138,2.3000 
33,311522,1,254,3,311522,Valantine Rd at Bailey Rd,,-27.511262,153.213,2,"{'stop_sequence': 16, 'stop_id': '311522', 'arrival_time': 1714377396, 'arrival_delay': -23}",-23,-0.3833 
331,300042,2,760,3,300042,Robina Town Centre,,-28.078238,153.383,5,"{'stop_sequence': 1, 'stop_id': '300042', 'arrival_time': 1714377472, 'arrival_delay': 293}",293,4.8833 
332,318946,1,710,3,318946,"GCUH, platform 3",,-27.960759,153.381,5,"{'stop_sequence': 2, 'stop_id': '318946', 'arrival_time': 1714377340, 'arrival_delay': 41}",41,0.6833 
338,317686,2,253,3,317686,Prins Willem Alexander Village,,-27.497721,153.219,2,"{'stop_sequence': 14, 'stop_id': '317686', 'arrival_time': 1714377421, 'arrival_delay': 122}",122,2.0333 
34,310256,2,545,3,310256,Browns Plains Rd at Forestglen Park,,-27.662297,153.051,3,"{'stop_sequence': 3, 'stop_id': '310256', 'arrival_time': 1714377437, 'arrival_delay': 197}",197,3.2833 
34,311160,2,276,3,311160,Poinciana Ave at Pin Oak Crescent,,-27.588938,153.287,3,"{'stop_sequence': 33, 'stop_id': '311160', 'arrival_time': 1714377439, 'arrival_delay': 200}",200,3.3333 
340,300491,2,747,3,300491,Ferry Rd at The Southport School,,-27.987831,153.412,5,"{'stop_sequence': 24, 'stop_id': '300491', 'arrival_time': 1714377459, 'arrival_delay': 100}",100,1.6667 
341,319999,1,740,3,319999,Nerang Broadbeach Rd at Lakeview Drive,,-27.999936,153.358,5,"{'stop_sequence': 11, 'stop_id': '319999', 'arrival_time': 1714377400, 'arrival_delay': 401}",401,6.6833 
342,318945,2,719,3,318945,"GCUH, platform 4",,-27.960664,153.381,5,"{'stop_sequence': 31, 'stop_id': '318945', 'arrival_time': 1714377471, 'arrival_delay': 291}",291,4.8500 
343,320914,2,TX7,3,320914,Helensvale station,,-27.925298,153.338,5,"{'stop_sequence': 8, 'stop_id': '320914', 'arrival_time': 1714377463, 'arrival_delay': -256}",-256,-4.2667 
344,320863,1,738,3,320863,"Broadbeach South station, stop D",,-28.035614,153.431,5,"{'stop_sequence': 1, 'stop_id': '320863', 'arrival_time': 1714377295, 'arrival_delay': -604}",-604,-10.0667 
345,320914,2,704,3,320914,Helensvale station,,-27.925298,153.338,5,"{'stop_sequence': 28, 'stop_id': '320914', 'arrival_time': 1714377441, 'arrival_delay': 21}",21,0.3500 
35,10884,2,251,3,10884,"The Sleeman Centre, stop D",,-27.509079,153.147,2,"{'stop_sequence': 5, 'stop_id': '10884', 'arrival_time': 1714377931, 'arrival_delay': 1351}",1351,22.5167 
35,315098,1,540,3,315098,Mount Lindesay Hwy at Gleneagle School,,-27.938073,152.982,4,"{'stop_sequence': 14, 'stop_id': '315098', 'arrival_time': 1714377415, 'arrival_delay': 55}",55,0.9167 
36,310588,2,676,3,310588,Anzac Ave at Allison Drive,,-27.247666,153.011,3,"{'stop_sequence': 4, 'stop_id': '310588', 'arrival_time': 1714377480, 'arrival_delay': 601}",601,10.0167 
36,320445,2,277,3,320445,"Victoria Point Central, platform 1",,-27.585866,153.282,3,"{'stop_sequence': 1, 'stop_id': '320445', 'arrival_time': 1714376983, 'arrival_delay': -1216}",-1216,-20.2667 
36,312724,1,668,3,312724,Potassium St near Silicon St,,-27.197701,152.991,3,"{'stop_sequence': 6, 'stop_id': '312724', 'arrival_time': 1714377415, 'arrival_delay': 55}",55,0.9167 
361,300529,2,719,3,300529,Smith St at Kumbari Avenue,,-27.961954,153.392,5,"{'stop_sequence': 7, 'stop_id': '300529', 'arrival_time': 1714377462, 'arrival_delay': 223}",223,3.7167 
366,319971,2,751,3,319971,"Pacific Fair, stop B",,-28.0356,153.427,5,"{'stop_sequence': 19, 'stop_id': '319971', 'arrival_time': 1714377454, 'arrival_delay': 455}",455,7.5833 
369,300203,2,745,3,300203,Gooding Rd at Cararra Markets,,-28.031039,153.395,5,"{'stop_sequence': 6, 'stop_id': '300203', 'arrival_time': 1714377528, 'arrival_delay': 169}",169,2.8167 
37,310037,2,644,3,310037,Fortune Ave at Bribie Island Shopping Centre,,-27.064827,153.158,4,"{'stop_sequence': 1, 'stop_id': '310037', 'arrival_time': 1714372201, 'arrival_delay': -5458}",-5458,-90.9667 
37,319806,2,676,3,319806,"North Lakes station, platform 1",,-27.237832,153.018,3,"{'stop_sequence': 1, 'stop_id': '319806', 'arrival_time': 1714377111, 'arrival_delay': -788}",-788,-13.1333 
37,320444,2,281,3,320444,"Victoria Point Central, platform 2",,-27.586261,153.282,3,"{'stop_sequence': 31, 'stop_id': '320444', 'arrival_time': 1714377523, 'arrival_delay': -76}",-76,-1.2667 
37,320967,2,545,3,320967,"Garden City Shopping Centre station, stop E",,-27.563655,153.081,2,"{'stop_sequence': 50, 'stop_id': '320967', 'arrival_time': 1714377572, 'arrival_delay': -87}",-87,-1.4500 
370,301463,2,754,3,301463,Yodelay St near Gainborough Dr,,-28.092929,153.416,6,"{'stop_sequence': 22, 'stop_id': '301463', 'arrival_time': 1714377441, 'arrival_delay': 561}",561,9.3500 
377,319727,1,705,3,319727,"Pacific Fair, stop C",,-28.035884,153.426,5,"{'stop_sequence': 2, 'stop_id': '319727', 'arrival_time': 1714377404, 'arrival_delay': -135}",-135,-2.2500 
38,313000,1,280,3,313000,Government Rd near Queen St,,-27.621845,153.304,3,"{'stop_sequence': 10, 'stop_id': '313000', 'arrival_time': 1714377403, 'arrival_delay': 104}",104,1.7333 
38,310857,1,660,3,310857,Anzac Ave at Museum and Historical Society,,-27.230398,153.11,3,"{'stop_sequence': 5, 'stop_id': '310857', 'arrival_time': 1714377370, 'arrival_delay': 70}",70,1.1667 
380,320865,2,738,3,320865,Broadbeach South station,,-28.035247,153.431,5,"{'stop_sequence': 32, 'stop_id': '320865', 'arrival_time': 1714377446, 'arrival_delay': 86}",86,1.4333 
388,301192,1,719,3,301192,Paradise Pde at Donald Avenue,,-27.877058,153.395,4,"{'stop_sequence': 5, 'stop_id': '301189', 'arrival_time': 1714377472, 'arrival_delay': 53}",53,0.8833 
39,311557,1,542,3,311557,Fedrick St near Short St,,-27.686764,153.024,3,"{'stop_sequence': 8, 'stop_id': '311557', 'arrival_time': 1714377419, 'arrival_delay': 899}",899,14.9833 
390,320931,2,760,3,320931,"The Pines Shopping Centre, stop A",,-28.134376,153.47,6,"{'stop_sequence': 12, 'stop_id': '320931', 'arrival_time': 1714377438, 'arrival_delay': 78}",78,1.3000 
394,300177,1,765,3,300177,Burleigh Heads National Park,,-28.096888,153.455,6,"{'stop_sequence': 25, 'stop_id': '300177', 'arrival_time': 1714377412, 'arrival_delay': 172}",172,2.8667 
396,301146,1,714,3,301146,Pitcairn Way near Yaldara St,,-27.944162,153.315,5,"{'stop_sequence': 12, 'stop_id': '301146', 'arrival_time': 1714377422, 'arrival_delay': 122}",122,2.0333 
4,600823,2,GLKN,0,600823,"Southport station, platform 1",,-27.967861,153.414,5,"{'stop_sequence': 12, 'stop_id': '600823', 'arrival_time': 1714377521, 'arrival_delay': 46}",46,0.7667 
4,319748,2,671,3,319748,Bray Park station,,-27.299725,152.986,2,"{'stop_sequence': 2, 'stop_id': '319748', 'arrival_time': 1714377518, 'arrival_delay': 159}",159,2.6500 
4,311314,2,267,3,311314,Vienna Rd near Wimborne Rd,,-27.544097,153.224,2,"{'stop_sequence': 36, 'stop_id': '311314', 'arrival_time': 1714377417, 'arrival_delay': -242}",-242,-4.0333 
4,321140,2,P546,3,321140,Greenbank RSL park 'n' ride,,-27.669564,153.03,3,"{'stop_sequence': 6, 'stop_id': '321140', 'arrival_time': 1714377457, 'arrival_delay': -22}",-22,-0.3667 
4,312727,2,668,3,312727,Potassium St at Boundary Road,,-27.200942,153.005,3,"{'stop_sequence': 9, 'stop_id': '312727', 'arrival_time': 1714377492, 'arrival_delay': -48}",-48,-0.8000 
40,310047,2,661,3,310047,Burpengary station,,-27.162302,152.957,3,"{'stop_sequence': 2, 'stop_id': '310047', 'arrival_time': 1714377875, 'arrival_delay': -25}",-25,-0.4167 
41,311465,1,653,3,311465,Ulster Dr near Kendall Rd,,-27.083349,152.929,3,"{'stop_sequence': 7, 'stop_id': '311465', 'arrival_time': 1714377411, 'arrival_delay': -8}",-8,-0.1333 
410,6303,2,270,3,6303,"Carindale Shopping Centre station, platform J",,-27.503895,153.103,2,"{'stop_sequence': 1, 'stop_id': '6303', 'arrival_time': 1714377117, 'arrival_delay': -543}",-543,-9.0500 
42,310047,1,661,3,310047,Burpengary station,,-27.162302,152.957,3,"{'stop_sequence': 2, 'stop_id': '310047', 'arrival_time': 1714377411, 'arrival_delay': -8}",-8,-0.1333 
43,10969,1,534,3,10969,Forest Lake Shops,,-27.623729,152.97,2,"{'stop_sequence': 20, 'stop_id': '10969', 'arrival_time': 1714377427, 'arrival_delay': 127}",127,2.1167 
43,13105,2,463,3,13105,Roxwell Street at Roxwell Street,,-27.623198,152.945,2,"{'stop_sequence': 17, 'stop_id': '13105', 'arrival_time': 1714377463, 'arrival_delay': 43}",43,0.7167 
43,315094,2,649,3,315094,Glass House Mountains station,,-26.899065,152.957,4,"{'stop_sequence': 8, 'stop_id': '315094', 'arrival_time': 1714377818, 'arrival_delay': 158}",158,2.6333 
432,320912,1,715,3,320912,Helensvale stop E,,-27.925373,153.338,5,"{'stop_sequence': 1, 'stop_id': '320912', 'arrival_time': 0, 'arrival_delay': 0}",0,0.0000 
433,300180,2,700,3,300180,Gold Coast Hwy at Anzac Parade,,-28.078023,153.446,6,"{'stop_sequence': 38, 'stop_id': '300180', 'arrival_time': 1714377474, 'arrival_delay': -66}",-66,-1.1000 
436,85,2,279,3,85,Elizabeth Street Stop 85,,-27.470029,153.026,1,"{'stop_sequence': 1, 'stop_id': '85', 'arrival_time': 1714374619, 'arrival_delay': -3341}",-3341,-55.6833 
44,310068,1,524,3,310068,"Goodna station, stop A",,-27.608649,152.902,2,"{'stop_sequence': 1, 'stop_id': '310068', 'arrival_time': 0, 'arrival_delay': 0}",0,0.0000 
446,319421,1,742,3,319421,Activity Cres at Production Avenue,,-27.969307,153.363,5,"{'stop_sequence': 25, 'stop_id': '319421', 'arrival_time': 1714377275, 'arrival_delay': 935}",935,15.5833 
449,301188,2,713,3,301188,Bayview St near Falkinder Ave,,-27.88739,153.395,4,"{'stop_sequence': 52, 'stop_id': '301188', 'arrival_time': 1714377444, 'arrival_delay': 264}",264,4.4000 
45,310111,1,527,3,310111,Orion Springfield Central,,-27.675721,152.902,3,"{'stop_sequence': 1, 'stop_id': '310111', 'arrival_time': 1714376952, 'arrival_delay': -407}",-407,-6.7833 
46,321308,2,280,3,321308,Shoreline Ave at Jingeri St,,-27.666606,153.3,3,"{'stop_sequence': 48, 'stop_id': '321308', 'arrival_time': 1714377523, 'arrival_delay': -76}",-76,-1.2667 
46,311989,2,691,3,311989,Maine Rd near Gerald Ave,,-27.253472,153.09,3,"{'stop_sequence': 18, 'stop_id': '311989', 'arrival_time': 1714377451, 'arrival_delay': 152}",152,2.5333 
460,301391,2,768,3,301391,Boyd St near Tugun St,,-28.151485,153.499,6,"{'stop_sequence': 19, 'stop_id': '301391', 'arrival_time': 1714377476, 'arrival_delay': 236}",236,3.9333 
463,318317,1,765,3,318317,Varsity Sound Ave near Azzurra Dr,,-28.092762,153.402,6,"{'stop_sequence': 33, 'stop_id': '318317', 'arrival_time': 1714377393, 'arrival_delay': 753}",753,12.5500 
469,300217,2,700,3,300217,Coolangatta Central,,-28.16838,153.537,6,"{'stop_sequence': 4, 'stop_id': '300217', 'arrival_time': 1714377442, 'arrival_delay': 922}",922,15.3667 
47,310947,1,539,3,310947,Railway St at Rosewood station,,-27.642987,152.592,4,"{'stop_sequence': 1, 'stop_id': '310947', 'arrival_time': 1714377340, 'arrival_delay': -439}",-439,-7.3167 
47,320209,2,531,3,320209,Providence Pde at Splendid Drive,,-27.691924,152.807,3,"{'stop_sequence': 3, 'stop_id': '320209', 'arrival_time': 1714377930, 'arrival_delay': 151}",151,2.5167 
47,10548,2,691,3,10548,Beaconsfield Tce near Seaview St,,-27.299583,153.062,2,"{'stop_sequence': 29, 'stop_id': '10548', 'arrival_time': 1714377431, 'arrival_delay': -109}",-109,-1.8167 
471,300218,2,760,3,300218,Coolangatta Central,,-28.168257,153.537,6,"{'stop_sequence': 33, 'stop_id': '300218', 'arrival_time': 1714377434, 'arrival_delay': 195}",195,3.2500 
474,300413,2,700,3,300413,Palm Beach,,-28.120517,153.472,6,"{'stop_sequence': 24, 'stop_id': '300413', 'arrival_time': 1714377472, 'arrival_delay': 112}",112,1.8667 
475,300103,2,740,3,300103,Heeb St at Gold Coast TAFE Ashmore,,-27.996355,153.391,5,"{'stop_sequence': 7, 'stop_id': '300103', 'arrival_time': 1714377460, 'arrival_delay': 41}",41,0.6833 
478,300519,1,704,3,300519,Scarborough St at White Street,,-27.970956,153.415,5,"{'stop_sequence': 7, 'stop_id': '300519', 'arrival_time': 1714377390, 'arrival_delay': 90}",90,1.5000 
479,300318,1,705,3,300318,Main Beach Pde at Main Beach Tourist Park,,-27.977676,153.429,5,"{'stop_sequence': 4, 'stop_id': '300318', 'arrival_time': 1714377411, 'arrival_delay': 111}",111,1.8500 
48,310796,2,503,3,310796,Gledson St at Jack Barkley Park,,-27.605114,152.796,3,"{'stop_sequence': 10, 'stop_id': '310796', 'arrival_time': 1714377460, 'arrival_delay': 220}",220,3.6667 
48,310548,1,539,3,310548,Lake Apex Dr at Gatton Apex Park,,-27.56913,152.271,5,"{'stop_sequence': 1, 'stop_id': '310548', 'arrival_time': 1714374399, 'arrival_delay': -3021}",-3021,-50.3500 
482,300042,2,747,3,300042,Robina Town Centre,,-28.078238,153.383,5,"{'stop_sequence': 2, 'stop_id': '300042', 'arrival_time': 1714377546, 'arrival_delay': 186}",186,3.1000 
483,300295,2,713,3,300295,Labrador Park Shopping Centre,,-27.935742,153.397,5,"{'stop_sequence': 25, 'stop_id': '300295', 'arrival_time': 1714377458, 'arrival_delay': 39}",39,0.6500 
484,300067,2,738,3,300067,Benowa Rd at Sapium Road,,-27.994062,153.394,5,"{'stop_sequence': 18, 'stop_id': '300067', 'arrival_time': 1714377474, 'arrival_delay': 114}",114,1.9000 
487,321519,2,726,3,321519,"Coomera station, stop A",,-27.852104,153.316,4,"{'stop_sequence': 1, 'stop_id': '321519', 'arrival_time': 1714376547, 'arrival_delay': -1472}",-1472,-24.5333 
488,301332,1,713,3,301332,Brooke Ave at Musgrave Avenue,,-27.956705,153.401,5,"{'stop_sequence': 42, 'stop_id': '301332', 'arrival_time': 1714377417, 'arrival_delay': 58}",58,0.9667 
489,300215,2,745,3,300215,Nerang Broadbeach Rd at Fairway Drive,,-28.032764,153.404,5,"{'stop_sequence': 5, 'stop_id': '300215', 'arrival_time': 1714377473, 'arrival_delay': 174}",174,2.9000 
49,310345,2,270,3,310345,Redland Bay Rd at Andrew Street,,-27.532125,153.199,2,"{'stop_sequence': 15, 'stop_id': '310345', 'arrival_time': 1714377429, 'arrival_delay': 250}",250,4.1667 
49,310551,2,539,3,310551,Western Dr at Gatton Apex Park,,-27.569106,152.269,5,"{'stop_sequence': 16, 'stop_id': '310551', 'arrival_time': 1714377472, 'arrival_delay': -67}",-67,-1.1167 
492,301051,1,736,3,301051,Weedons Rd near Crusader Way,,-28.000143,153.328,5,"{'stop_sequence': 15, 'stop_id': '301051', 'arrival_time': 1714377416, 'arrival_delay': 176}",176,2.9333 
495,300977,2,750,3,300977,Rio Vista Bvd near Compass Ct,,-28.055466,153.419,5,"{'stop_sequence': 8, 'stop_id': '300977', 'arrival_time': 1714377420, 'arrival_delay': 60}",60,1.0000 
497,300746,2,719,3,300746,Pine Ridge Rd at Lensgate Road,,-27.929196,153.375,5,"{'stop_sequence': 20, 'stop_id': '300746', 'arrival_time': 1714377445, 'arrival_delay': 86}",86,1.4333 
499,301382,1,740,3,301382,Thomas Dr near Anembo St,,-27.997584,153.417,5,"{'stop_sequence': 13, 'stop_id': '301382', 'arrival_time': 1714377415, 'arrival_delay': 296}",296,4.9333 
5,600817,2,GLKN,0,600817,"Main Beach station, platform 1",,-27.981919,153.423,5,"{'stop_sequence': 8, 'stop_id': '600815', 'arrival_time': 1714377405, 'arrival_delay': 45}",45,0.7500 
5,312703,2,663,3,312703,Forest Ridge Rd near Rokeby St,,-27.179656,152.934,3,"{'stop_sequence': 13, 'stop_id': '312703', 'arrival_time': 1714377441, 'arrival_delay': 81}",81,1.3500 
5,320676,2,263,3,320676,"Capalaba bus station, stop C",,-27.523235,153.192,2,"{'stop_sequence': 1, 'stop_id': '320676', 'arrival_time': 1714377248, 'arrival_delay': -711}",-711,-11.8500 
50,310566,2,515,3,310566,East St at South Street,,-27.61682,152.76,3,"{'stop_sequence': 18, 'stop_id': '310566', 'arrival_time': 1714377468, 'arrival_delay': -12}",-12,-0.2000 
500,320863,1,731,3,320863,"Broadbeach South station, stop D",,-28.035614,153.431,5,"{'stop_sequence': 1, 'stop_id': '320863', 'arrival_time': 1714377299, 'arrival_delay': -300}",-300,-5.0000 
51,310111,1,528,3,310111,Orion Springfield Central,,-27.675721,152.902,3,"{'stop_sequence': 1, 'stop_id': '310111', 'arrival_time': 1714376235, 'arrival_delay': -1364}",-1364,-22.7333 
51,85,2,275,3,85,Elizabeth Street Stop 85,,-27.470029,153.026,1,"{'stop_sequence': 1, 'stop_id': '85', 'arrival_time': 0, 'arrival_delay': 0}",0,0.0000 
51,312601,2,656,3,312601,Beacon St near Grant St,,-27.102775,152.937,3,"{'stop_sequence': 6, 'stop_id': '312601', 'arrival_time': 1714377424, 'arrival_delay': 64}",64,1.0667 
52,310040,1,503,3,310040,Booval station,,-27.609572,152.79,3,"{'stop_sequence': 35, 'stop_id': '310040', 'arrival_time': 1714377397, 'arrival_delay': -23}",-23,-0.3833 
52,310492,2,662,3,310492,Deception Bay Rd at Bailey Road,,-27.192678,153.023,3,"{'stop_sequence': 2, 'stop_id': '310492', 'arrival_time': 1714377455, 'arrival_delay': 155}",155,2.5833 
54,318075,2,526,3,318075,Redbank Plaza,,-27.60598,152.866,3,"{'stop_sequence': 4, 'stop_id': '317735', 'arrival_time': 1714377528, 'arrival_delay': 48}",48,0.8000 
54,319543,2,665,3,319543,Deception Bay bus station,,-27.193927,153.03,3,"{'stop_sequence': 27, 'stop_id': '319543', 'arrival_time': 1714376573, 'arrival_delay': -3127}",-3127,-52.1167 
55,310493,2,665,3,310493,Deception Bay Rd at Bailey Road,,-27.193045,153.025,3,"{'stop_sequence': 26, 'stop_id': '310493', 'arrival_time': 1714377454, 'arrival_delay': -146}",-146,-2.4333 
550,7,2,281,3,7,Ann Street Stop 7 at Anzac Square,,-27.466105,153.026,1,"{'stop_sequence': 2, 'stop_id': '7', 'arrival_time': 1714377571, 'arrival_delay': 391}",391,6.5167 
551,310036,2,254,3,310036,Birkdale station,,-27.493664,153.218,2,"{'stop_sequence': 15, 'stop_id': '310036', 'arrival_time': 1714377429, 'arrival_delay': 70}",70,1.1667 
552,10884,2,273,3,10884,"The Sleeman Centre, stop D",,-27.509079,153.147,2,"{'stop_sequence': 5, 'stop_id': '10884', 'arrival_time': 1714378014, 'arrival_delay': 655}",655,10.9167 
5608,320836,2,611,3,320836,"Maroochydore station, platform 1",,-26.654874,153.091,6,"{'stop_sequence': 12, 'stop_id': '318223', 'arrival_time': 1714377396, 'arrival_delay': 336}",336,5.6000 
5610,301807,1,631,3,301807,Cooroy Noosa Rd at Bougainvillia Caravan Park,,-26.398068,153.015,8,"{'stop_sequence': 24, 'stop_id': '301807', 'arrival_time': 1714377411, 'arrival_delay': 351}",351,5.8500 
5613,301907,2,616,3,301907,Stringybark Rd at Matthew Flinders Anglican,,-26.698236,153.059,6,"{'stop_sequence': 20, 'stop_id': '301907', 'arrival_time': 1714377524, 'arrival_delay': 584}",584,9.7333 
5616,301709,2,611,3,301709,Walan St near Bahlaka St,,-26.681333,153.118,6,"{'stop_sequence': 21, 'stop_id': '301709', 'arrival_time': 1714377437, 'arrival_delay': 18}",18,0.3000 
5617,320836,1,617,3,320836,"Maroochydore station, platform 1",,-26.654874,153.091,6,"{'stop_sequence': 1, 'stop_id': '320836', 'arrival_time': 1714376924, 'arrival_delay': -1276}",-1276,-21.2667 
5618,319985,2,637,3,319985,Coes Creek Rd at Judith Street,,-26.635716,152.95,6,"{'stop_sequence': 20, 'stop_id': '319985', 'arrival_time': 1714377427, 'arrival_delay': 68}",68,1.1333 
5620,301623,2,605,3,301623,Steve Irwin Way at Mooloolah Cemetery,,-26.774395,153.038,5,"{'stop_sequence': 9, 'stop_id': '301623', 'arrival_time': 1714377671, 'arrival_delay': 191}",191,3.1833 
5623,301969,2,607,3,301969,Gothic Pde near Edna St,,-26.767028,153.13,5,"{'stop_sequence': 20, 'stop_id': '301969', 'arrival_time': 1714377510, 'arrival_delay': 91}",91,1.5167 
5625,302040,2,600,3,302040,First Ave near George St,,-26.655437,153.093,6,"{'stop_sequence': 44, 'stop_id': '302040', 'arrival_time': 1714377502, 'arrival_delay': -37}",-37,-0.6167 
5632,301524,1,607,3,301524,Innovation Pkwy near Metier Linkway,,-26.732554,153.122,6,"{'stop_sequence': 22, 'stop_id': '301524', 'arrival_time': 1714377417, 'arrival_delay': 237}",237,3.9500 
5633,317920,2,627,3,317920,Belmore Tce near Stevens St,,-26.403366,153.111,8,"{'stop_sequence': 2, 'stop_id': '317920', 'arrival_time': 1714377436, 'arrival_delay': 197}",197,3.2833 
5636,301673,1,600,3,301673,First Ave near Memorial Ave,,-26.654964,153.093,6,"{'stop_sequence': 2, 'stop_id': '301673', 'arrival_time': 1714377419, 'arrival_delay': 60}",60,1.0000 
5637,321523,2,631,3,321523,Pioneer Rd at The Ginger Factory,,-26.554372,152.961,7,"{'stop_sequence': 37, 'stop_id': '321523', 'arrival_time': 1714377894, 'arrival_delay': -6}",-6,-0.1000 
5638,301506,2,619,3,301506,Alexandra Pde at Alexandra Headland Beach,,-26.66946,153.107,6,"{'stop_sequence': 14, 'stop_id': '301506', 'arrival_time': 1714377449, 'arrival_delay': -151}",-151,-2.5167 
5639,320836,2,610,3,320836,"Maroochydore station, platform 1",,-26.654874,153.091,6,"{'stop_sequence': 31, 'stop_id': '320836', 'arrival_time': 1714377638, 'arrival_delay': -21}",-21,-0.3500 
5640,301975,2,602,3,301975,Coonowrin St near Trundle St,,-26.783404,153.13,5,"{'stop_sequence': 41, 'stop_id': '301975', 'arrival_time': 1714377420, 'arrival_delay': 540}",540,9.0000 
5641,302105,2,610,3,302105,Blaxland Rd near Lawson Cl,,-26.626086,152.948,6,"{'stop_sequence': 3, 'stop_id': '302105', 'arrival_time': 1714377423, 'arrival_delay': 303}",303,5.0500 
57,310076,1,515,3,310076,UniSQ Ipswich,,-27.628037,152.756,3,"{'stop_sequence': 1, 'stop_id': '310076', 'arrival_time': 1714377365, 'arrival_delay': -534}",-534,-8.9000 
5705,320836,1,602,3,320836,"Maroochydore station, platform 1",,-26.654874,153.091,6,"{'stop_sequence': 1, 'stop_id': '320836', 'arrival_time': 1714374320, 'arrival_delay': -3280}",-3280,-54.6667 
5709,301339,1,626,3,301339,Ben Lexcen Dr near Sarena Ct,,-26.405328,153.102,8,"{'stop_sequence': 30, 'stop_id': '301339', 'arrival_time': 1714377389, 'arrival_delay': -90}",-90,-1.5000 
5710,301728,1,612,3,301728,Nambour General Hospital,,-26.621481,152.953,6,"{'stop_sequence': 1, 'stop_id': '301728', 'arrival_time': 1714377203, 'arrival_delay': -516}",-516,-8.6000 
5711,301495,2,636,3,301495,Nambour station,,-26.625588,152.958,6,"{'stop_sequence': 20, 'stop_id': '301495', 'arrival_time': 1714377519, 'arrival_delay': 40}",40,0.6667 
5714,320629,1,614,3,320629,First Av at Future Way,,-26.659142,153.091,6,"{'stop_sequence': 20, 'stop_id': '320629', 'arrival_time': 1714377402, 'arrival_delay': 223}",223,3.7167 
5715,301568,1,600,3,301568,Bulcock St at Canberra Terrace,,-26.804869,153.135,5,"{'stop_sequence': 2, 'stop_id': '301568', 'arrival_time': 1714377420, 'arrival_delay': 60}",60,1.0000 
5716,301963,2,632,3,301963,Tewantin Rd near Miva St,,-26.414235,152.917,8,"{'stop_sequence': 30, 'stop_id': '301963', 'arrival_time': 1714377488, 'arrival_delay': 248}",248,4.1333 
5719,320837,1,620,3,320837,"Maroochydore station, platform 2",,-26.654332,153.091,6,"{'stop_sequence': 1, 'stop_id': '320837', 'arrival_time': 0, 'arrival_delay': 0}",0,0.0000 
5721,301587,1,622,3,301587,David Low Way at Coolum High School,,-26.501296,153.091,7,"{'stop_sequence': 15, 'stop_id': '301587', 'arrival_time': 1714377410, 'arrival_delay': 51}",51,0.8500 
5722,317117,2,628,3,317117,Werin St at Crank Street,,-26.385706,153.034,8,"{'stop_sequence': 31, 'stop_id': '317117', 'arrival_time': 1714377456, 'arrival_delay': 36}",36,0.6000 
5724,321161,1,611,3,321161,Woodlands Bvd at Forest Park Street,,-26.755922,153.105,5,"{'stop_sequence': 1, 'stop_id': '321161', 'arrival_time': 1714376907, 'arrival_delay': -512}",-512,-8.5333 
5725,301844,2,600,3,301844,Nicklin Way at Park Haven,,-26.753014,153.128,6,"{'stop_sequence': 30, 'stop_id': '301844', 'arrival_time': 1714377462, 'arrival_delay': 103}",103,1.7167 
5726,320842,2,628,3,320842,"Noosa Junction station, stop A",,-26.398882,153.093,8,"{'stop_sequence': 41, 'stop_id': '320842', 'arrival_time': 1714377431, 'arrival_delay': 251}",251,4.1833 
5729,302217,2,629,3,302217,Moorindil St near Toolar St,,-26.389743,153.035,8,"{'stop_sequence': 3, 'stop_id': '302217', 'arrival_time': 1714377426, 'arrival_delay': 306}",306,5.1000 
5731,301614,2,631,3,301614,Memorial Dr at Eumundi Aquatic Centre,,-26.481287,152.954,7,"{'stop_sequence': 14, 'stop_id': '301614', 'arrival_time': 1714377822, 'arrival_delay': -258}",-258,-4.3000 
5733,301756,1,627,3,301756,Gympie Tce at Ely Park,,-26.397327,153.064,8,"{'stop_sequence': 7, 'stop_id': '301756', 'arrival_time': 1714377415, 'arrival_delay': 116}",116,1.9333 
5734,321580,2,615,3,321580,"Landsborough station, stop A",,-26.808728,152.967,5,"{'stop_sequence': 1, 'stop_id': '321580', 'arrival_time': 0, 'arrival_delay': 0}",0,0.0000 
5737,320843,2,631,3,320843,"Noosa Junction station, stop B",,-26.399132,153.093,8,"{'stop_sequence': 48, 'stop_id': '320843', 'arrival_time': 1714377479, 'arrival_delay': 60}",60,1.0000 
5739,320273,2,608,3,320273,Aura Bvd at Baringa Shopping Centre Stop A,,-26.81005,153.084,5,"{'stop_sequence': 5, 'stop_id': '320273', 'arrival_time': 1714377453, 'arrival_delay': 93}",93,1.5500 
5740,301691,2,607,3,301691,Nicklin Way at Jessica Park,,-26.69945,153.121,6,"{'stop_sequence': 4, 'stop_id': '301691', 'arrival_time': 1714377893, 'arrival_delay': 173}",173,2.8833 
5743,301930,2,606,3,301930,West Tce near Oval Ave,,-26.801428,153.121,5,"{'stop_sequence': 6, 'stop_id': '301930', 'arrival_time': 1714377431, 'arrival_delay': 132}",132,2.2000 
5745,318223,1,611,3,318223,Brisbane Rd at Woomba Place,,-26.687153,153.116,6,"{'stop_sequence': 12, 'stop_id': '318223', 'arrival_time': 1714377396, 'arrival_delay': 336}",336,5.6000 
5748,314239,1,602,3,314239,Buderim Pines Dr near Treefern Ct,,-26.6862,153.088,6,"{'stop_sequence': 47, 'stop_id': '314239', 'arrival_time': 1714377403, 'arrival_delay': -136}",-136,-2.2667 
5749,301924,1,609,3,301924,Oval Ave near Gosling St,,-26.801602,153.126,5,"{'stop_sequence': 24, 'stop_id': '301924', 'arrival_time': 1714377407, 'arrival_delay': -13}",-13,-0.2167 
5751,301729,2,610,3,301729,Lamington Tce near Magnolia St,,-26.633823,152.961,6,"{'stop_sequence': 20, 'stop_id': '301729', 'arrival_time': 1714377576, 'arrival_delay': -23}",-23,-0.3833 
5752,301507,2,619,3,301507,Alexandra Pde at Alexandra Headland Beach,,-26.6687,153.107,6,"{'stop_sequence': 6, 'stop_id': '301507', 'arrival_time': 1714377486, 'arrival_delay': 186}",186,3.1000 
5754,301700,2,600,3,301700,Brisbane Rd at Neerim Drive,,-26.692109,153.115,6,"{'stop_sequence': 31, 'stop_id': '301700', 'arrival_time': 1714377430, 'arrival_delay': -109}",-109,-1.8167 
5757,301495,2,630,3,301495,Nambour station,,-26.625588,152.958,6,"{'stop_sequence': 1, 'stop_id': '301495', 'arrival_time': 1714375118, 'arrival_delay': -2302}",-2302,-38.3667 
5758,301856,2,616,3,301856,Mooloolaba Rd near Correa Pl,,-26.674239,153.101,6,"{'stop_sequence': 25, 'stop_id': '301856', 'arrival_time': 1714377511, 'arrival_delay': 92}",92,1.5333 
5759,320847,1,607,3,320847,"UniSC station, platform 2",,-26.718459,153.062,6,"{'stop_sequence': 1, 'stop_id': '320847', 'arrival_time': 0, 'arrival_delay': 0}",0,0.0000 
5761,301797,2,615,3,301797,University Way at Chancellor Park Marketplace,,-26.718135,153.051,6,"{'stop_sequence': 9, 'stop_id': '301797', 'arrival_time': 1714377648, 'arrival_delay': 469}",469,7.8167 
5764,301845,2,600,3,301845,Nicklin Way at Wurtulla Shopping Village,,-26.758867,153.125,6,"{'stop_sequence': 16, 'stop_id': '301845', 'arrival_time': 1714377486, 'arrival_delay': 187}",187,3.1167 
5767,315687,2,614,3,315687,Maud St at Coghlan Court,,-26.664809,153.092,6,"{'stop_sequence': 4, 'stop_id': '315687', 'arrival_time': 1714377423, 'arrival_delay': 304}",304,5.0667 
5769,301712,2,620,3,301712,David Low Way at Mount Coolum,,-26.565884,153.092,7,"{'stop_sequence': 20, 'stop_id': '301712', 'arrival_time': 1714377498, 'arrival_delay': 139}",139,2.3167 
5770,301784,2,620,3,301784,David Low Way at Peregian Water Tower,,-26.470277,153.096,8,"{'stop_sequence': 16, 'stop_id': '301784', 'arrival_time': 1714377439, 'arrival_delay': 259}",259,4.3167 
59,311552,1,502,3,311552,South Station Rd at Ivory Street,,-27.616252,152.789,3,"{'stop_sequence': 17, 'stop_id': '311552', 'arrival_time': 1714377408, 'arrival_delay': 48}",48,0.8000 
6,310594,2,676,3,310594,Anzac Ave at Duffield Road,,-27.248602,153.003,3,"{'stop_sequence': 16, 'stop_id': '310594', 'arrival_time': 1714377411, 'arrival_delay': 111}",111,1.8500 
6,312300,2,541,3,312300,Middle Rd at Wineglass Dr,,-27.6754,153.027,3,"{'stop_sequence': 3, 'stop_id': '312300', 'arrival_time': 1714377506, 'arrival_delay': 87}",87,1.4500 
60,311241,2,640,3,311241,North St at Second Avenue,,-27.068386,153.204,4,"{'stop_sequence': 1, 'stop_id': '311241', 'arrival_time': 1714375846, 'arrival_delay': -2174}",-2174,-36.2333 
60,310778,1,660,3,310778,Morayfield Rd at Oakey Flat Road,,-27.111354,152.95,3,"{'stop_sequence': 34, 'stop_id': '310778', 'arrival_time': 1714377392, 'arrival_delay': -28}",-28,-0.4667 
60,313177,2,399,3,313177,Mount Glorious Rd near Mary Ring Dr,,-27.373436,152.885,2,"{'stop_sequence': 3, 'stop_id': '313177', 'arrival_time': 1714377481, 'arrival_delay': 1}",1,0.0167 
60,310785,2,500,3,310785,Brisbane Rd at Montauban Street,,-27.613498,152.775,3,"{'stop_sequence': 38, 'stop_id': '310785', 'arrival_time': 1714377428, 'arrival_delay': 249}",249,4.1500 
602,314802,1,282,3,314802,Bryants Rd at Torres Street,,-27.667636,153.19,3,"{'stop_sequence': 5, 'stop_id': '314802', 'arrival_time': 1714377409, 'arrival_delay': 289}",289,4.8167 
603,10813,1,251,3,10813,"Buranda busway, platform 2",,-27.497218,153.04,1,"{'stop_sequence': 4, 'stop_id': '10813', 'arrival_time': 1714377431, 'arrival_delay': 492}",492,8.2000 
604,276,2,265,3,276,Ann Street Stop 10A at King George Square,,-27.467867,153.024,1,"{'stop_sequence': 3, 'stop_id': '276', 'arrival_time': 1714377461, 'arrival_delay': 402}",402,6.7000 
609,85,2,243,3,85,Elizabeth Street Stop 85,,-27.470029,153.026,1,"{'stop_sequence': 1, 'stop_id': '85', 'arrival_time': 1714372801, 'arrival_delay': -4318}",-4318,-71.9667 
61,310244,1,515,3,310244,Hunter St at Brassall Shopping Village,,-27.597097,152.745,3,"{'stop_sequence': 3, 'stop_id': '310244', 'arrival_time': 1714377383, 'arrival_delay': -37}",-37,-0.6167 
610,320030,1,272,3,320030,"Redland Bay Marina, platform 1",,-27.618197,153.311,3,"{'stop_sequence': 1, 'stop_id': '320030', 'arrival_time': 0, 'arrival_delay': 0}",0,0.0000 
611,6303,1,242,3,6303,"Carindale Shopping Centre station, platform J",,-27.503895,153.103,2,"{'stop_sequence': 1, 'stop_id': '6303', 'arrival_time': 0, 'arrival_delay': 0}",0,0.0000 
612,276,2,276,3,276,Ann Street Stop 10A at King George Square,,-27.467867,153.024,1,"{'stop_sequence': 3, 'stop_id': '276', 'arrival_time': 1714377435, 'arrival_delay': 256}",256,4.2667 
624,300868,2,TX7,3,300868,Siganto Dr at Tradewinds Street,,-27.890781,153.315,4,"{'stop_sequence': 4, 'stop_id': '300868', 'arrival_time': 1714377449, 'arrival_delay': 509}",509,8.4833 
68,320419,2,535,3,320419,Teviot Rd at Mountain Ridge Rd,,-27.7907,152.981,3,"{'stop_sequence': 7, 'stop_id': '320406', 'arrival_time': 1714377718, 'arrival_delay': -122}",-122,-2.0333 
69,311024,1,545,3,311024,Kingston Rd at Park Road,,-27.627473,153.118,2,"{'stop_sequence': 13, 'stop_id': '311024', 'arrival_time': 1714377412, 'arrival_delay': -128}",-128,-2.1333 
7,310082,2,545,3,310082,Woodridge station,,-27.638242,153.104,2,"{'stop_sequence': 29, 'stop_id': '310082', 'arrival_time': 1714377525, 'arrival_delay': 166}",166,2.7667 
7,600833,2,GLKN,0,600833,"Parkwood East station, platform 1",,-27.962977,153.364,5,"{'stop_sequence': 19, 'stop_id': '600833', 'arrival_time': 1714377488, 'arrival_delay': 73}",73,1.2167 
7,13114,1,463,3,13114,Wilruna St at Wacol train station,,-27.589408,152.924,2,"{'stop_sequence': 19, 'stop_id': '13114', 'arrival_time': 1714377399, 'arrival_delay': -81}",-81,-1.3500 
709,319661,1,731,3,319661,Bundall Rd at Sorrento Shopping Village,,-28.013691,153.412,5,"{'stop_sequence': 19, 'stop_id': '319661', 'arrival_time': 1714377410, 'arrival_delay': 171}",171,2.8500 
71,310088,2,529,3,310088,"Riverlink, Stop A",,-27.607147,152.759,3,"{'stop_sequence': 7, 'stop_id': '310088', 'arrival_time': 1714377940, 'arrival_delay': 40}",40,0.6667 
73,311578,2,542,3,311578,Short St near Moreton St,,-27.697076,153.022,3,"{'stop_sequence': 23, 'stop_id': '311578', 'arrival_time': 1714377434, 'arrival_delay': 14}",14,0.2333 
730,319667,1,705,3,319667,Elizabeth Av at Oracle Boulevard,,-28.030944,153.432,5,"{'stop_sequence': 4, 'stop_id': '319667', 'arrival_time': 1714377415, 'arrival_delay': 296}",296,4.9333 
732,300392,2,740,3,300392,Price St at Nerang State School,,-27.988967,153.337,5,"{'stop_sequence': 2, 'stop_id': '300392', 'arrival_time': 1714377453, 'arrival_delay': 34}",34,0.5667 
739,300492,2,711,3,300492,Gold Coast Hwy at Broadwater Tourist Park,,-27.957346,153.41,5,"{'stop_sequence': 5, 'stop_id': '300492', 'arrival_time': 1714377448, 'arrival_delay': 149}",149,2.4833 
740,320926,2,759,3,320926,Robina station,,-28.07084,153.379,5,"{'stop_sequence': 20, 'stop_id': '320926', 'arrival_time': 1714377450, 'arrival_delay': 211}",211,3.5167 
741,300374,2,741,3,300374,Southport Nerang Rd at Ashmore Road,,-27.984164,153.367,5,"{'stop_sequence': 26, 'stop_id': '300374', 'arrival_time': 1714377429, 'arrival_delay': 790}",790,13.1667 
743,320927,1,747,3,320927,"Southport bus station, stop A",,-27.96718,153.414,5,"{'stop_sequence': 1, 'stop_id': '320927', 'arrival_time': 1714377324, 'arrival_delay': 144}",144,2.4000 
746,300036,2,721,3,300036,Ormeau station,,-27.799379,153.282,4,"{'stop_sequence': 9, 'stop_id': '300036', 'arrival_time': 1714377518, 'arrival_delay': 39}",39,0.6500 
754,300082,2,735,3,300082,Nerang Rd at Bailey Crescent,,-27.976643,153.389,5,"{'stop_sequence': 6, 'stop_id': '300082', 'arrival_time': 1714377428, 'arrival_delay': 189}",189,3.1500 
760,311398,1,729,3,311398,Main St near Lubach St,,-27.723137,153.209,3,"{'stop_sequence': 3, 'stop_id': '311398', 'arrival_time': 1714377391, 'arrival_delay': 92}",92,1.5333 
764,300081,2,741,3,300081,Heeb St at Gold Coast TAFE Ashmore,,-27.996153,153.391,5,"{'stop_sequence': 31, 'stop_id': '300081', 'arrival_time': 1714377422, 'arrival_delay': 1143}",1143,19.0500 
767,300308,1,704,3,300308,Gold Coast Hwy at Southport Tourist Park,,-27.954007,153.408,5,"{'stop_sequence': 13, 'stop_id': '300308', 'arrival_time': 1714377404, 'arrival_delay': 525}",525,8.7500 
775,300372,2,735,3,300372,Southport Nerang Rd at Central Park Plaza,,-27.986884,153.36,5,"{'stop_sequence': 7, 'stop_id': '300372', 'arrival_time': 1714377473, 'arrival_delay': -7}",-7,-0.1167 
785,321515,2,726,3,321515,Coomera station,,-27.851887,153.316,4,"{'stop_sequence': 10, 'stop_id': '321515', 'arrival_time': 1714377600, 'arrival_delay': 301}",301,5.0167 
786,300036,2,721,3,300036,Ormeau station,,-27.799379,153.282,4,"{'stop_sequence': 9, 'stop_id': '300036', 'arrival_time': 1714377433, 'arrival_delay': 1753}",1753,29.2167 
8,319748,2,673,3,319748,Bray Park station,,-27.299725,152.986,2,"{'stop_sequence': 2, 'stop_id': '319748', 'arrival_time': 1714377515, 'arrival_delay': 96}",96,1.6000 
8,600801,2,GLKS,0,600801,Broadbeach South station,,-28.035761,153.431,5,"{'stop_sequence': 24, 'stop_id': '600801', 'arrival_time': 1714377548, 'arrival_delay': 8}",8,0.1333 
8,310583,2,503,3,310583,Warwick Rd at Showground North,,-27.626119,152.76,3,"{'stop_sequence': 42, 'stop_id': '310583', 'arrival_time': 1714377458, 'arrival_delay': 159}",159,2.6500 
8,10813,2,P546,3,10813,"Buranda busway, platform 2",,-27.497218,153.04,1,"{'stop_sequence': 4, 'stop_id': '10813', 'arrival_time': 1714377671, 'arrival_delay': 252}",252,4.2000 
83,10813,2,261,3,10813,"Buranda busway, platform 2",,-27.497218,153.04,1,"{'stop_sequence': 4, 'stop_id': '10813', 'arrival_time': 1714378003, 'arrival_delay': 524}",524,8.7333 
84,10277,2,670,3,10277,South Pine Rd near Station St,,-27.312393,152.99,2,"{'stop_sequence': 2, 'stop_id': '10277', 'arrival_time': 1714377482, 'arrival_delay': 62}",62,1.0333 
8476,4328,1,261,3,4328,Miles Platting Rd at Gardner Rd,,-27.578664,153.113,2,"{'stop_sequence': 10, 'stop_id': '4328', 'arrival_time': 1714377399, 'arrival_delay': 519}",519,8.6500 
85,313335,2,527,3,313335,Topaz Rd near Sharpless Rd,,-27.651533,152.917,3,"{'stop_sequence': 17, 'stop_id': '313335', 'arrival_time': 1714377445, 'arrival_delay': -95}",-95,-1.5833 
860,311166,2,282,3,311166,Redland Bay Rd at Magnolia Pde,,-27.590473,153.283,3,"{'stop_sequence': 3, 'stop_id': '311166', 'arrival_time': 1714377434, 'arrival_delay': 255}",255,4.2500 
862,10884,2,243,3,10884,"The Sleeman Centre, stop D",,-27.509079,153.147,2,"{'stop_sequence': 5, 'stop_id': '10884', 'arrival_time': 1714377872, 'arrival_delay': 633}",633,10.5500 
867,313425,2,250,3,313425,Cleveland Redland Bay near William Stewart Park,,-27.559963,153.268,3,"{'stop_sequence': 40, 'stop_id': '313425', 'arrival_time': 1714377457, 'arrival_delay': 97}",97,1.6167 
868,310318,2,275,3,310318,Finucane Rd at Old Cleveland Rd,,-27.52192,153.201,2,"{'stop_sequence': 9, 'stop_id': '310318', 'arrival_time': 1714377538, 'arrival_delay': 538}",538,8.9667 
88,317797,2,526,3,317797,Jones Rd near Augusta Pkwy,,-27.647373,152.878,3,"{'stop_sequence': 13, 'stop_id': '317797', 'arrival_time': 1714377490, 'arrival_delay': 250}",250,4.1667 
89,319144,2,526,3,319144,Springfield Central station,,-27.674188,152.902,3,"{'stop_sequence': 30, 'stop_id': '319144', 'arrival_time': 1714377721, 'arrival_delay': -58}",-58,-0.9667 
9,600822,2,GLKS,0,600822,"Southport station, platform 2",,-27.967674,153.414,5,"{'stop_sequence': 11, 'stop_id': '600822', 'arrival_time': 1714377479, 'arrival_delay': 39}",39,0.6500 
9,10823,1,281,3,10823,"Eight Mile Plains station, platform 2",,-27.578702,153.102,2,"{'stop_sequence': 7, 'stop_id': '10823', 'arrival_time': 1714377424, 'arrival_delay': 664}",664,11.0667 
90,310110,2,534,3,310110,Education City,,-27.683198,152.908,3,"{'stop_sequence': 5, 'stop_id': '310110', 'arrival_time': 1714377442, 'arrival_delay': 563}",563,9.3833 
92,311176,2,545,3,311176,Chambers Flat Rd at Lancaster Park,,-27.678057,153.12,3,"{'stop_sequence': 30, 'stop_id': '311176', 'arrival_time': 1714377428, 'arrival_delay': 248}",248,4.1333 
920,320928,2,719,3,320928,"Southport bus station, stop B",,-27.966766,153.414,5,"{'stop_sequence': 1, 'stop_id': '320928', 'arrival_time': 1714376850, 'arrival_delay': -750}",-750,-12.5000 
920,10884,2,267,3,10884,"The Sleeman Centre, stop D",,-27.509079,153.147,2,"{'stop_sequence': 5, 'stop_id': '10884', 'arrival_time': 1714377472, 'arrival_delay': 172}",172,2.8667 
921,302264,2,753,3,302264,Reedy Creek Rd at Ambassador Drive,,-28.101906,153.41,6,"{'stop_sequence': 7, 'stop_id': '302264', 'arrival_time': 1714377514, 'arrival_delay': 215}",215,3.5833 
923,300635,2,738,3,300635,Numeralla Ave near Maloo Pl,,-27.992449,153.377,5,"{'stop_sequence': 10, 'stop_id': '300635', 'arrival_time': 1714377433, 'arrival_delay': 313}",313,5.2167 
924,300031,2,748,3,300031,Mudgereeba Shopping Centre,,-28.079363,153.367,5,"{'stop_sequence': 23, 'stop_id': '300031', 'arrival_time': 1714377524, 'arrival_delay': 224}",224,3.7333 
924,313560,2,255,3,313560,Main Rd near Station St,,-27.495647,153.24,2,"{'stop_sequence': 11, 'stop_id': '313560', 'arrival_time': 1714377431, 'arrival_delay': 191}",191,3.1833 
925,300322,2,705,3,300322,Main Beach Pde at Cable Street,,-27.982533,153.429,5,"{'stop_sequence': 18, 'stop_id': '300322', 'arrival_time': 1714377466, 'arrival_delay': 47}",47,0.7833 
925,310819,2,250,3,310819,Shore St at Grant Street,,-27.523853,153.254,3,"{'stop_sequence': 25, 'stop_id': '310819', 'arrival_time': 1714377434, 'arrival_delay': 75}",75,1.2500 
926,320860,1,700,3,320860,"Broadbeach South station, stop A",,-28.035612,153.431,5,"{'stop_sequence': 1, 'stop_id': '320860', 'arrival_time': 1714377314, 'arrival_delay': 314}",314,5.2333 
927,300174,1,700,3,300174,Gold Coast Hwy at Third Avenue,,-28.082933,153.448,6,"{'stop_sequence': 14, 'stop_id': '300174', 'arrival_time': 1714377411, 'arrival_delay': 711}",711,11.8500 
928,315087,2,748,3,315087,Gilston Rd at Worley Drive,,-28.014563,153.311,5,"{'stop_sequence': 18, 'stop_id': '315087', 'arrival_time': 1714377475, 'arrival_delay': 235}",235,3.9167 
929,300042,1,750,3,300042,Robina Town Centre,,-28.078238,153.383,5,"{'stop_sequence': 2, 'stop_id': '300042', 'arrival_time': 1714377221, 'arrival_delay': 1601}",1601,26.6833 
930,319172,2,728,3,319172,Eastern Service Rd near Elliot Dr hail 'n' ride,,-27.747019,153.235,3,"{'stop_sequence': 21, 'stop_id': '319172', 'arrival_time': 1714377590, 'arrival_delay': 530}",530,8.8333 
931,301212,2,710,3,301212,Parkwood Bvd near Peter Thomson Dr,,-27.94934,153.37,5,"{'stop_sequence': 9, 'stop_id': '301212', 'arrival_time': 1714377448, 'arrival_delay': 209}",209,3.4833 
932,317720,2,765,3,317720,Scottsdale Dr at Christine Avenue,,-28.085761,153.391,5,"{'stop_sequence': 3, 'stop_id': '317720', 'arrival_time': 1714377454, 'arrival_delay': 94}",94,1.5667 
934,321515,2,722,3,321515,Coomera station,,-27.851887,153.316,4,"{'stop_sequence': 16, 'stop_id': '321515', 'arrival_time': 1714377442, 'arrival_delay': 143}",143,2.3833 
935,319968,2,720,3,319968,Bella Bvd at Deepak Drive,,-27.82544,153.283,4,"{'stop_sequence': 3, 'stop_id': '319968', 'arrival_time': 1714377759, 'arrival_delay': 399}",399,6.6500 
936,320907,2,725,3,320907,Helensvale stop A,,-27.926092,153.339,5,"{'stop_sequence': 1, 'stop_id': '320907', 'arrival_time': 1714376518, 'arrival_delay': -1802}",-1802,-30.0333 
938,300328,1,704,3,300328,Tedder Avenue at Cronin Avenue,,-27.980805,153.425,5,"{'stop_sequence': 25, 'stop_id': '300328', 'arrival_time': 1714377387, 'arrival_delay': 328}",328,5.4667 
939,301428,1,725,3,301428,Roe St at Brygon Creek Drive,,-27.874479,153.298,4,"{'stop_sequence': 12, 'stop_id': '301428', 'arrival_time': 1714377385, 'arrival_delay': 505}",505,8.4167 
941,321519,2,724,3,321519,"Coomera station, stop A",,-27.852104,153.316,4,"{'stop_sequence': 1, 'stop_id': '321519', 'arrival_time': 1714376875, 'arrival_delay': -1144}",-1144,-19.0667 
942,301230,2,722,3,301230,Depot Rd near Pimpama Jacobs Well Rd,,-27.815498,153.29,4,"{'stop_sequence': 14, 'stop_id': '301230', 'arrival_time': 1714377618, 'arrival_delay': 439}",439,7.3167 
943,320911,2,704,3,320911,Helensvale stop D,,-27.925415,153.339,5,"{'stop_sequence': 1, 'stop_id': '320911', 'arrival_time': 1714376967, 'arrival_delay': -572}",-572,-9.5333 
944,300493,2,704,3,300493,Gold Coast Hwy at Broadwater Tourist Park,,-27.958345,153.411,5,"{'stop_sequence': 19, 'stop_id': '300493', 'arrival_time': 1714377485, 'arrival_delay': 365}",365,6.0833 
946,300458,2,719,3,300458,Bayview St at St Francis Xavier Catholic School,,-27.908995,153.402,4,"{'stop_sequence': 30, 'stop_id': '300458', 'arrival_time': 1714377459, 'arrival_delay': 340}",340,5.6667 
95,318074,1,515,3,318074,"Ipswich station, stop B",,-27.613815,152.76,3,"{'stop_sequence': 15, 'stop_id': '318074', 'arrival_time': 1714377395, 'arrival_delay': -144}",-144,-2.4000 
950,300330,2,700,3,300330,Nobby Beach shops,,-28.059512,153.438,5,"{'stop_sequence': 45, 'stop_id': '300330', 'arrival_time': 1714377425, 'arrival_delay': 246}",246,4.1000 
96,319144,2,531,3,319144,Springfield Central station,,-27.674188,152.902,3,"{'stop_sequence': 7, 'stop_id': '319144', 'arrival_time': 1714377485, 'arrival_delay': -54}",-54,-0.9000 
969,313260,1,263,3,313260,Kiwi St near Emu St,,-27.579773,153.193,2,"{'stop_sequence': 19, 'stop_id': '313260', 'arrival_time': 1714377362, 'arrival_delay': -118}",-118,-1.9667 
97,310111,2,533,3,310111,Orion Springfield Central,,-27.675721,152.902,3,"{'stop_sequence': 1, 'stop_id': '310111', 'arrival_time': 1714377351, 'arrival_delay': -188}",-188,-3.1333 
970,310200,1,250,3,310200,Old Cleveland Rd near Scrub Rd,,-27.502449,153.118,2,"{'stop_sequence': 53, 'stop_id': '310200', 'arrival_time': 1714377415, 'arrival_delay': 55}",55,0.9167 
971,310904,1,250,3,310904,Broadwater Tce at Main Street,,-27.609335,153.298,3,"{'stop_sequence': 50, 'stop_id': '310904', 'arrival_time': 1714377399, 'arrival_delay': -21}",-21,-0.3500 
98,317842,2,528,3,317842,Springfield Lakes Bvd near Greentrees Tce,,-27.673211,152.919,3,"{'stop_sequence': 17, 'stop_id': '317842', 'arrival_time': 1714377442, 'arrival_delay': 323}",323,5.3833 
99,310563,2,500,3,310563,Brisbane St at Marsden Parade,,-27.614836,152.762,3,"{'stop_sequence': 3, 'stop_id': '310563', 'arrival_time': 1714377493, 'arrival_delay': 74}",74,1.2333 
Albert,317581,2,SYDS,4,317581,Dockside ferry terminal REOPENS 2nd April 2024,,-27.472463,153.039,1,"{'stop_sequence': 7, 'stop_id': '317581', 'arrival_time': 1714377529, 'arrival_delay': -190}",-190,-3.1667 
Barrambin II,321666,1,UQSL,4,321666,South Bank ferry terminal,,-27.475897,153.022,1,"{'stop_sequence': 11, 'stop_id': '321666', 'arrival_time': 1714377464, 'arrival_delay': -16}",-16,-0.2667 
Binkinba,317590,2,NHAM,4,317590,Riverside ferry terminal,,-27.466871,153.031,1,"{'stop_sequence': 1, 'stop_id': '317590', 'arrival_time': 1714376128, 'arrival_delay': -1772}",-1772,-29.5333 
D141,600468,1,SPCA,2,600468,"Dakabin station, platform 2",,-27.230367,152.976,3,"{'stop_sequence': 1, 'stop_id': '600090', 'arrival_time': 1714372755, 'arrival_delay': 15}",15,0.2500 
D147,600007,1,SPCA,2,600007,"Bowen Hills station, platform 4",,-27.445437,153.038,1,"{'stop_sequence': 1, 'stop_id': '600089', 'arrival_time': 1714374551, 'arrival_delay': 11}",11,0.1833 
D151,600330,2,IPCA,2,600330,"Gailes station, platform 2",,-27.602297,152.919,2,"{'stop_sequence': 1, 'stop_id': '600347', 'arrival_time': 1714376220, 'arrival_delay': 0}",0,0.0000 
D554,600478,1,CAIP,2,600478,"Caboolture station, platform 3",,-27.082678,152.954,3,"{'stop_sequence': 1, 'stop_id': '600478', 'arrival_time': 0, 'arrival_delay': 0}",0,0.0000 
D5Y2,600329,1,CAIP,2,600329,"Gailes station, platform 1",,-27.602207,152.919,2,"{'stop_sequence': 16, 'stop_id': '600329', 'arrival_time': 1714377341, 'arrival_delay': 41}",41,0.6833 
D5Y4,600323,2,BRIP,2,600323,"Darra station, platform 3",,-27.565767,152.952,2,"{'stop_sequence': 1, 'stop_id': '600002', 'arrival_time': 1714376077, 'arrival_delay': 37}",37,0.6167 
D864,600266,1,SHCL,2,600266,"Wynnum station, platform 1",,-27.43969,153.166,2,"{'stop_sequence': 1, 'stop_id': '600425', 'arrival_time': 1714372780, 'arrival_delay': 40}",40,0.6667 
D868,600006,2,SHCL,2,600006,"South Bank station, platform 1",,-27.481832,153.023,1,"{'stop_sequence': 19, 'stop_id': '600006', 'arrival_time': 1714377478, 'arrival_delay': 58}",58,0.9667 
D870,600005,1,SHCL,2,600005,"Bowen Hills station, platform 1",,-27.445402,153.038,1,"{'stop_sequence': 14, 'stop_id': '600005', 'arrival_time': 1714377352, 'arrival_delay': -8}",-8,-0.1333 
DA81,600396,1,CLSH,2,600396,"Eagle Junction station, platform 2",,-27.41542,153.05,1,"{'stop_sequence': 1, 'stop_id': '600278', 'arrival_time': 1714372765, 'arrival_delay': 25}",25,0.4167 
DA85,600190,2,CLSH,2,600190,"Park Road station, platform 2",,-27.493794,153.031,1,"{'stop_sequence': 1, 'stop_id': '600278', 'arrival_time': 1714374545, 'arrival_delay': 5}",5,0.0833 
DA89,600270,1,CLSH,2,600270,"Lota station, platform 2",,-27.470004,153.188,2,"{'stop_sequence': 1, 'stop_id': '600278', 'arrival_time': 1714376340, 'arrival_delay': 0}",0,0.0000 
DA93,600278,1,CLSH,2,600278,"Cleveland station, platform 2",,-27.524287,153.266,3,"{'stop_sequence': 1, 'stop_id': '600278', 'arrival_time': 0, 'arrival_delay': 0}",0,0.0000 
DB51,600000,2,BRDB,2,600000,"Bowen Hills station, platform 2",,-27.44539,153.038,1,"{'stop_sequence': 1, 'stop_id': '600190', 'arrival_time': 1714376373, 'arrival_delay': 33}",33,0.5500 
DB53,600030,1,BRDB,2,600030,"Roma Street station, platform 6",,-27.46544,153.02,1,"{'stop_sequence': 1, 'stop_id': '600030', 'arrival_time': 0, 'arrival_delay': 0}",0,0.0000 
DG58,600118,2,BRVL,2,600118,"Robina station, platform 1",,-28.071716,153.378,5,"{'stop_sequence': 1, 'stop_id': '600005', 'arrival_time': 1714372417, 'arrival_delay': 157}",157,2.6167 
DG60,600185,2,BDVL,2,600185,"Nerang station, platform 1",,-27.994317,153.35,5,"{'stop_sequence': 1, 'stop_id': '600428', 'arrival_time': 1714371564, 'arrival_delay': 24}",24,0.4000 
DG62,600241,2,BDVL,2,600241,"Ormeau station, platform 1",,-27.799141,153.282,4,"{'stop_sequence': 16, 'stop_id': '600241', 'arrival_time': 1714377490, 'arrival_delay': 70}",70,1.1667 
DG64,600239,2,BRVL,2,600239,"Beenleigh station, platform 1",,-27.717459,153.205,3,"{'stop_sequence': 1, 'stop_id': '600005', 'arrival_time': 1714374234, 'arrival_delay': 174}",174,2.9000 
DG66,600230,1,BDVL,2,600230,"Loganlea station, platform 1",,-27.670818,153.138,3,"{'stop_sequence': 1, 'stop_id': '600428', 'arrival_time': 1714373426, 'arrival_delay': 86}",86,1.4333 
DG68,600212,2,BDVL,2,600212,"Altandi station, platform 1",,-27.582799,153.064,2,"{'stop_sequence': 1, 'stop_id': '600428', 'arrival_time': 1714374330, 'arrival_delay': 90}",90,1.5000 
DG70,600085,1,BDVL,2,600085,"Park Road station, platform 1",,-27.493617,153.031,1,"{'stop_sequence': 1, 'stop_id': '600428', 'arrival_time': 1714375169, 'arrival_delay': 29}",29,0.4833 
DG72,600014,1,BDVL,2,600014,"Fortitude Valley station, platform 1",,-27.456135,153.034,1,"{'stop_sequence': 7, 'stop_id': '600014', 'arrival_time': 1714377360, 'arrival_delay': 60}",60,1.0000 
DG74,600395,2,BDVL,2,600395,"Eagle Junction station, platform 1",,-27.415535,153.05,1,"{'stop_sequence': 1, 'stop_id': '600428', 'arrival_time': 1714376980, 'arrival_delay': 40}",40,0.6667 
DG76,600428,1,BDVL,2,600428,"Domestic Airport station, platform 1",,-27.385205,153.119,1,"{'stop_sequence': 1, 'stop_id': '600428', 'arrival_time': 0, 'arrival_delay': 0}",0,0.0000 
DK64,600090,2,RPSP,2,600090,"Springfield Central station, platform 2",,-27.674345,152.903,3,"{'stop_sequence': 1, 'stop_id': '600633', 'arrival_time': 0, 'arrival_delay': 0}",0,0.0000 
DK68,600309,2,BRSP,2,600309,"Sherwood station, platform 1",,-27.53123,152.98,2,"{'stop_sequence': 1, 'stop_id': '600002', 'arrival_time': 1714375860, 'arrival_delay': 0}",0,0.0000 
DK70,600284,2,RPSP,2,600284,"Auchenflower station, platform 2",,-27.476127,152.997,1,"{'stop_sequence': 1, 'stop_id': '600633', 'arrival_time': 1714373358, 'arrival_delay': 198}",198,3.3000 
DK78,600641,1,RPSP,2,600641,"Murrumba Downs station, platform 1",,-27.252525,153.011,3,"{'stop_sequence': 5, 'stop_id': '600641', 'arrival_time': 1714377388, 'arrival_delay': -32}",-32,-0.5333 
DL19,600487,2,BRNA,2,600487,"Landsborough station, platform 1",,-26.807956,152.966,5,"{'stop_sequence': 1, 'stop_id': '600038', 'arrival_time': 1714372693, 'arrival_delay': 133}",133,2.2167 
DP85,600028,1,VLBD,2,600028,"Roma Street station, platform 7",,-27.465246,153.02,1,"{'stop_sequence': 13, 'stop_id': '600028', 'arrival_time': 1714377395, 'arrival_delay': -25}",-25,-0.4167 
DP87,600214,2,VLBD,2,600214,"Altandi station, platform 3",,-27.58279,153.064,2,"{'stop_sequence': 1, 'stop_id': '600117', 'arrival_time': 1714374611, 'arrival_delay': 11}",11,0.1833 
DP89,600244,2,VLBD,2,600244,"Coomera station, platform 2",,-27.852886,153.318,4,"{'stop_sequence': 1, 'stop_id': '600117', 'arrival_time': 1714376453, 'arrival_delay': 53}",53,0.8833 
DY61,600634,2,BRRP,2,600634,"Kippa-Ring station, platform 2",,-27.225324,153.082,3,"{'stop_sequence': 1, 'stop_id': '600038', 'arrival_time': 1714373831, 'arrival_delay': 11}",11,0.1833 
DY63,600640,2,IPRP,2,600640,"Mango Hill station, platform 2",,-27.24605,153.028,3,"{'stop_sequence': 40, 'stop_id': '600640', 'arrival_time': 1714377490, 'arrival_delay': 370}",370,6.1667 
DY65,600466,2,BRRP,2,600466,"Petrie station, platform 3",,-27.268368,152.982,3,"{'stop_sequence': 16, 'stop_id': '600466', 'arrival_time': 1714377565, 'arrival_delay': 205}",205,3.4167 
DY71,600011,1,BRRP,2,600011,"Fortitude Valley station, platform 4",,-27.456021,153.034,1,"{'stop_sequence': 3, 'stop_id': '600011', 'arrival_time': 1714377410, 'arrival_delay': -10}",-10,-0.1667 
DY79,600090,1,SPRP,2,600090,"Springfield Central station, platform 2",,-27.674345,152.903,3,"{'stop_sequence': 1, 'stop_id': '600090', 'arrival_time': 0, 'arrival_delay': 0}",0,0.0000 
Gilwunpa,317588,2,UQSL,4,317588,New Farm Park ferry terminal,,-27.471669,153.052,1,"{'stop_sequence': 7, 'stop_id': '317588', 'arrival_time': 1714377628, 'arrival_delay': 89}",89,1.4833 
Gootcha,317587,2,UQSL,4,317587,Teneriffe ferry terminal,,-27.45184,153.049,1,"{'stop_sequence': 4, 'stop_id': '317587', 'arrival_time': 1714377496, 'arrival_delay': -103}",-103,-1.7167 
J529,600362,1,RWIP,2,600362,"Rosewood station, platform 1",,-27.643222,152.593,4,"{'stop_sequence': 1, 'stop_id': '600362', 'arrival_time': 0, 'arrival_delay': 0}",0,0.0000 
Kurilpa,317572,1,NHAM,4,317572,Guyatt Park ferry terminal,,-27.492284,153.002,1,"{'stop_sequence': 3, 'stop_id': '317572', 'arrival_time': 1714377392, 'arrival_delay': 213}",213,3.5500 
Kurilpa II,317583,2,NHAM,4,317583,Hawthorne ferry terminal,,-27.461179,153.053,1,"{'stop_sequence': 2, 'stop_id': '317583', 'arrival_time': 1714377870, 'arrival_delay': -29}",-29,-0.4833 
Kurrowera,320032,1,SMBI,4,320032,"Redland Bay Marina, platform 4",,-27.617925,153.312,3,"{'stop_sequence': 1, 'stop_id': '320032', 'arrival_time': 1714377202, 'arrival_delay': -1598}",-1598,-26.6333 
Mahreel,319665,1,NHAM,4,319665,UQ St Lucia ferry terminal,,-27.496777,153.02,1,"{'stop_sequence': 1, 'stop_id': '319665', 'arrival_time': 1714377353, 'arrival_delay': -247}",-247,-4.1167 
Meeandah,317590,2,UQSL,4,317590,Riverside ferry terminal,,-27.466871,153.031,1,"{'stop_sequence': 9, 'stop_id': '317590', 'arrival_time': 1714377471, 'arrival_delay': -69}",-69,-1.1500 
Melany,317590,1,NTHQ,4,317590,Riverside ferry terminal,,-27.466871,153.031,1,"{'stop_sequence': 5, 'stop_id': '317590', 'arrival_time': 1714377396, 'arrival_delay': -2364}",-2364,-39.4000 
Mirbarpa,317584,1,TNRF,4,317584,Bulimba ferry terminal,,-27.450432,153.052,1,"{'stop_sequence': 1, 'stop_id': '317584', 'arrival_time': 1714377396, 'arrival_delay': -84}",-84,-1.4000 
Mooroolbin,317571,1,UQSL,4,317571,Regatta ferry terminal,,-27.483199,152.997,1,"{'stop_sequence': 14, 'stop_id': '317571', 'arrival_time': 1714377407, 'arrival_delay': -13}",-13,-0.2167 
mooroolbin II,317583,1,NHAM,4,317583,Hawthorne ferry terminal,,-27.461179,153.053,1,"{'stop_sequence': 12, 'stop_id': '317583', 'arrival_time': 1714377435, 'arrival_delay': -105}",-105,-1.7500 
Mudherri,317590,2,NHAM,4,317590,Riverside ferry terminal,,-27.466871,153.031,1,"{'stop_sequence': 1, 'stop_id': '317590', 'arrival_time': 1714377092, 'arrival_delay': -1707}",-1707,-28.4500 
Neville Bonner,317590,1,NHAM,4,317590,Riverside ferry terminal,,-27.466871,153.031,1,"{'stop_sequence': 9, 'stop_id': '317590', 'arrival_time': 1714377343, 'arrival_delay': 43}",43,0.7167 
Spirit of Brisbane,317571,2,UQSL,4,317571,Regatta ferry terminal,,-27.483199,152.997,1,"{'stop_sequence': 3, 'stop_id': '317571', 'arrival_time': 1714377788, 'arrival_delay': -52}",-52,-0.8667 
T135,600476,2,BRCA,2,600476,"Caboolture station, platform 1",,-27.0827,152.954,3,"{'stop_sequence': 11, 'stop_id': '600476', 'arrival_time': 1714376131, 'arrival_delay': 31}",31,0.5167 
T149,600320,1,SPCA,2,600320,"Oxley station, platform 3",,-27.552284,152.974,2,"{'stop_sequence': 1, 'stop_id': '600090', 'arrival_time': 1714376340, 'arrival_delay': 0}",0,0.0000 
T560,600489,2,NAIP,2,600489,"Mooloolah station, platform 1",,-26.765954,152.963,5,"{'stop_sequence': 1, 'stop_id': '600493', 'arrival_time': 1714375964, 'arrival_delay': 44}",44,0.7333 
T5X8,600348,2,BRIP,2,600348,"Ipswich station, platform 2",,-27.61292,152.761,3,"{'stop_sequence': 1, 'stop_id': '600002', 'arrival_time': 1714373897, 'arrival_delay': 17}",17,0.2833 
T6Y0,600339,1,BRRW,2,600339,"Ebbw Vale station, platform 1",,-27.603385,152.822,3,"{'stop_sequence': 14, 'stop_id': '600339', 'arrival_time': 1714377372, 'arrival_delay': -48}",-48,-0.8000 
T766,600012,2,FGBN,2,600012,"South Brisbane station, platform 1",,-27.475067,153.019,1,"{'stop_sequence': 16, 'stop_id': '600012', 'arrival_time': 1714377566, 'arrival_delay': 146}",146,2.4333 
TALWURRAPIN,318724,2,SMBI,4,318724,Russell Island Ferry Terminal,,-27.644616,153.383,5,"{'stop_sequence': 2, 'stop_id': '318724', 'arrival_time': 1714378004, 'arrival_delay': -195}",-195,-3.2500 
Taylor,321666,2,SYDS,4,321666,South Bank ferry terminal,,-27.475897,153.022,1,"{'stop_sequence': 2, 'stop_id': '321666', 'arrival_time': 1714377447, 'arrival_delay': -93}",-93,-1.5500 
TEB7,600370,1,BRFG,2,600370,"Windsor station, platform 2",,-27.435384,153.029,1,"{'stop_sequence': 5, 'stop_id': '600370', 'arrival_time': 1714377395, 'arrival_delay': -25}",-25,-0.4167 
TL17,600491,2,SPNA,2,600491,"Palmwoods station, platform 1",,-26.688683,152.961,6,"{'stop_sequence': 1, 'stop_id': '600090', 'arrival_time': 1714369166, 'arrival_delay': 26}",26,0.4333 
TL21,600476,1,BRNA,2,600476,"Caboolture station, platform 1",,-27.0827,152.954,3,"{'stop_sequence': 1, 'stop_id': '600038', 'arrival_time': 1714374063, 'arrival_delay': 63}",63,1.0500 
TR54,600435,1,DBBR,2,600435,"Doomben station, platform 1",,-27.431455,153.075,1,"{'stop_sequence': 1, 'stop_id': '600435', 'arrival_time': 0, 'arrival_delay': 0}",0,0.0000 
Tugulawa II,318002,1,UQSL,4,318002,Northshore Hamilton ferry terminal,,-27.445456,153.084,1,"{'stop_sequence': 1, 'stop_id': '318002', 'arrival_time': 0, 'arrival_delay': 0}",0,0.0000 
tunamun,317584,1,NHAM,4,317584,Bulimba ferry terminal,,-27.450432,153.052,1,"{'stop_sequence': 3, 'stop_id': '317584', 'arrival_time': 1714377428, 'arrival_delay': 128}",128,2.1333 
TVX4,600204,1,DBBN,2,600204,"Coopers Plains station, platform 2",,-27.567254,153.036,2,"{'stop_sequence': 15, 'stop_id': '600204', 'arrival_time': 1714377180, 'arrival_delay': 0}",0,0.0000 
TY73,600290,2,IPRP,2,600290,"Toowong station, platform 4",,-27.48531,152.993,1,"{'stop_sequence': 19, 'stop_id': '600290', 'arrival_time': 1714377553, 'arrival_delay': 193}",193,3.2167 
Wilwinpa,319743,2,NHAM,4,319743,Bretts Wharf ferry terminal,,-27.440234,153.064,1,"{'stop_sequence': 15, 'stop_id': '319743', 'arrival_time': 1714377596, 'arrival_delay': -4}",-4,-0.0667 
Ya-wa-gara,321666,1,NHAM,4,321666,South Bank ferry terminal,,-27.475897,153.022,1,"{'stop_sequence': 7, 'stop_id': '321666', 'arrival_time': 1714377418, 'arrival_delay': 59}",59,0.9833 
